stop_id,stop_code,stop_name,stop_desc,stop_lat,stop_lon,zone_id,stop_url,location_type,parent_station
0002,671,Quantin,,47.34103,5.05691,,,0,CTP0002
CTP0002,671,Quantin,,47.34103,5.05691,,,1,
0003,672,Joffre,,47.34031,5.05293,,,0,CTP0003
CTP0003,672,Joffre,,47.34031,5.05293,,,1,
0006,675,Giraud,,47.33585,5.05157,,,0,CTP0006
CTP0006,675,Giraud,,47.33585,5.05157,,,1,
0007,676,Alsace,,47.33398,5.05285,,,0,CTP0007
CTP0007,676,Alsace,,47.33398,5.05285,,,1,
0008,677,Reims,,47.33264,5.05107,,,0,CTP0008
CTP0008,677,Reims,,47.33264,5.05107,,,1,
0021,103,Giono,,47.35225,5.04861,,,0,CTP0021
CTP0021,103,Giono,,47.35225,5.04861,,,1,
0024,235,Bossuet,,47.32148,5.03657,,,0,CTP0024
CTP0024,235,Bossuet,,47.32148,5.03657,,,1,
0026,272,Bossuet,,47.32081,5.03701,,,0,CTP0024
0027,236,Zola,,47.31953,5.03332,,,0,CTP0027
CTP0027,236,Zola,,47.31953,5.03332,,,1,
0028,271,Zola,,47.31925,5.03503,,,0,CTP0027
0030,1299,Verdun,,47.34461,5.03214,,,0,CTP0030
CTP0030,1299,Verdun,,47.34461,5.03214,,,1,
0032,600,Faubourg de Raines,,47.31792,5.02711,,,0,CTP0032
CTP0032,600,Faubourg de Raines,,47.31792,5.02711,,,1,
0033,653,Rolin,,47.31616,5.02664,,,0,CTP0033
CTP0033,653,Rolin,,47.31616,5.02664,,,1,
0035,602,Marillier,,47.31405,5.01942,,,0,CTP0035
CTP0035,602,Marillier,,47.31405,5.01942,,,1,
0036,603,Diebold,,47.31381,5.01725,,,0,CTP0036
CTP0036,603,Diebold,,47.31381,5.01725,,,1,
0037,604,Bourroches Eiffel,,47.31334,5.01285,,,0,CTP0037
CTP0037,604,Bourroches Eiffel,,47.31334,5.01285,,,1,
0041,654,"Patte d'Oie",,47.31186,5.00391,,,0,CTP0041
CTP0041,654,"Patte d'Oie",,47.31186,5.00391,,,1,
0043,608,Dadolle,,47.30773,4.99926,,,0,CTP0043
CTP0043,608,Dadolle,,47.30773,4.99926,,,1,
0047,622,Favier,,47.30553,4.99383,,,0,CTP0047
CTP0047,622,Favier,,47.30553,4.99383,,,1,
0048,623,Bordet,,47.30615,4.99566,,,0,CTP0048
CTP0048,623,Bordet,,47.30615,4.99566,,,1,
0052,1047,la Garande,,47.24319,5.11256,,,0,CTP0052
CTP0052,1047,la Garande,,47.24319,5.11256,,,1,
0053,655,Noblemaire,,47.31125,4.99998,,,0,CTP0053
CTP0053,655,Noblemaire,,47.31125,4.99998,,,1,
0054,656,Echaillons,,47.31129,4.99763,,,0,CTP0054
CTP0054,656,Echaillons,,47.31129,4.99763,,,1,
0055,657,Delestraint,,47.31176,4.99485,,,0,CTP0055
CTP0055,657,Delestraint,,47.31176,4.99485,,,1,
0056,1048,Silo,,47.24084,5.10427,,,0,CTP0056
CTP0056,1048,Silo,,47.24084,5.10427,,,1,
0057,659,Cent Ecus,,47.31022,4.99647,,,0,CTP0057
CTP0057,659,Cent Ecus,,47.31022,4.99647,,,1,
0058,637,Clos Chauveau,,47.31457,5.00112,,,0,CTP0058
CTP0058,637,Clos Chauveau,,47.31457,5.00112,,,1,
0059,638,"Lycee Marcs d'Or",,47.31555,4.99777,,,0,CTP0059
CTP0059,638,"Lycee Marcs d'Or",,47.31555,4.99777,,,1,
0060,639,Paupion,,47.3164,4.99545,,,0,CTP0060
CTP0060,639,Paupion,,47.3164,4.99545,,,1,
0061,640,CFA-BTP,,47.317,4.99114,,,0,CTP0061
CTP0061,640,CFA-BTP,,47.317,4.99114,,,1,
0062,641,Saulx Tavannes,,47.31708,4.98849,,,0,CTP0062
CTP0062,641,Saulx Tavannes,,47.31708,4.98849,,,1,
0064,97,College Champolion,,47.33217,5.07398,,,0,CTP0064
CTP0064,97,College Champolion,,47.33217,5.07398,,,1,
0068,127,Longvic Mairie,,47.28461,5.06301,,,0,CTP0068
CTP0068,127,Longvic Mairie,,47.28461,5.06301,,,1,
0069,1604,"Bles d'Or",,47.28586,5.06661,,,0,CTP0069
CTP0069,1604,"Bles d'Or",,47.28586,5.06661,,,1,
0072,1130,St-Antoine,,47.27491,5.12096,,,0,CTP0072
CTP0072,1130,St-Antoine,,47.27491,5.12096,,,1,
0074,132,Pommerets,,47.29481,5.05548,,,0,CTP0074
CTP0074,132,Pommerets,,47.29481,5.05548,,,1,
0075,133,Tamaris,,47.29663,5.05403,,,0,CTP0075
CTP0075,133,Tamaris,,47.29663,5.05403,,,1,
0076,134,Bourillot,,47.29899,5.05261,,,0,CTP0076
CTP0076,134,Bourillot,,47.29899,5.05261,,,1,
0077,135,Barbusse,,47.30172,5.04987,,,0,CTP0077
CTP0077,135,Barbusse,,47.30172,5.04987,,,1,
0079,137,Chancenotte,,47.30537,5.04765,,,0,CTP0079
CTP0079,137,Chancenotte,,47.30537,5.04765,,,1,
0080,138,Piscine Carrousel,,47.3073,5.04681,,,0,CTP0080
CTP0080,138,Piscine Carrousel,,47.3073,5.04681,,,1,
0081,139,Le Notre,,47.3102,5.04557,,,0,CTP0081
CTP0081,139,Le Notre,,47.3102,5.04557,,,1,
0082,140,Princes de Conde,,47.31354,5.04421,,,0,CTP0082
CTP0082,140,Princes de Conde,,47.31354,5.04421,,,1,
0083,10,Jean Jacques Rousseau,,47.32512,5.04495,,,0,CTP0083
CTP0083,10,Jean Jacques Rousseau,,47.32512,5.04495,,,1,
0085,142,Bibliotheque,,47.31937,5.04300,,,0,CTP0085
CTP0085,142,Bibliotheque,,47.31937,5.04300,,,1,
0089,289,Zipfel,,47.30234,5.06663,,,0,CTP0089
CTP0089,289,Zipfel,,47.30234,5.06663,,,1,
0090,1195,Bouhey,,47.2917,5.05833,,,0,CTP0090
CTP0090,1195,Bouhey,,47.2917,5.05833,,,1,
0091,292,Le Jolivet,,47.30627,5.05953,,,0,CTP0091
CTP0091,292,Le Jolivet,,47.30627,5.05953,,,1,
0093,294,Guibaudet,,47.31053,5.05383,,,0,CTP0093
CTP0093,294,Guibaudet,,47.31053,5.05383,,,1,
0094,295,Prison,,47.3124,5.05159,,,0,CTP0094
CTP0094,295,Prison,,47.3124,5.05159,,,1,
0095,296,De Musset,,47.31435,5.04813,,,0,CTP0095
CTP0095,296,De Musset,,47.31435,5.04813,,,1,
0099,407,Ravel,,47.30112,5.04107,,,0,CTP0099
CTP0099,407,Ravel,,47.30112,5.04107,,,1,
0100,408,Chopin,,47.30268,5.04212,,,0,CTP0100
CTP0100,408,Chopin,,47.30268,5.04212,,,1,
0101,409,Attiret,,47.30397,5.04094,,,0,CTP0101
CTP0101,409,Attiret,,47.30397,5.04094,,,1,
0102,684,Stearinerie,,47.30481,5.03448,,,0,CTP0102
CTP0102,684,Stearinerie,,47.30481,5.03448,,,1,
0104,411,Blanchisseries,,47.30778,5.03749,,,0,CTP0104
CTP0104,411,Blanchisseries,,47.30778,5.03749,,,1,
0105,412,ESPE,,47.30963,5.03811,,,0,CTP0105
CTP0105,412,ESPE,,47.30963,5.03811,,,1,
0106,413,Bordot,,47.31246,5.03991,,,0,CTP0106
CTP0106,413,Bordot,,47.31246,5.03991,,,1,
0107,414,Dumont,,47.3145,5.04168,,,0,CTP0107
CTP0107,414,Dumont,,47.3145,5.04168,,,1,
0111,389,Montmuzard,,47.32503,5.06427,,,0,CTP0111
CTP0111,389,Montmuzard,,47.32503,5.06427,,,1,
0113,829,Parc des sports,,47.3223,5.06611,,,0,CTP0113
CTP0113,829,Parc des sports,,47.3223,5.06611,,,1,
0114,391,Doumer,,47.32194,5.06120,,,0,CTP0114
CTP0114,391,Doumer,,47.32194,5.06120,,,1,
0115,392,Strasbourg,,47.32158,5.05759,,,0,CTP0115
CTP0115,392,Strasbourg,,47.32158,5.05759,,,1,
0116,393,SNCF Porte Neuve,,47.32165,5.05390,,,0,CTP0116
CTP0116,393,SNCF Porte Neuve,,47.32165,5.05390,,,1,
0118,1288,Dupuis,,47.32645,5.03869,,,0,CTP0118
CTP0118,1288,Dupuis,,47.32645,5.03869,,,1,
0123,212,Theatre,,47.32215,5.04363,,,0,CTP0123
CTP0123,212,Theatre,,47.32215,5.04363,,,1,
0125,78,Square Darcy,,47.32411,5.03363,,,0,CTP0125
CTP0125,78,Square Darcy,,47.32411,5.03363,,,1,
0126,28,Spuller,,47.32626,5.03015,,,0,CTP0126
CTP0126,28,Spuller,,47.32626,5.03015,,,1,
0127,29,Genois,,47.32927,5.02525,,,0,CTP0127
CTP0127,29,Genois,,47.32927,5.02525,,,1,
0128,30,Ziem,,47.33139,5.02146,,,0,CTP0128
CTP0128,30,Ziem,,47.33139,5.02146,,,1,
0131,721,Petit Bernard,,47.30716,5.03399,,,0,CTP0131
CTP0131,721,Petit Bernard,,47.30716,5.03399,,,1,
0132,489,Place des Savoirs,,47.33146,5.06739,,,0,CTP0132
CTP0132,489,Place des Savoirs,,47.33146,5.06739,,,1,
0133,488,Seguin,,47.33252,5.06838,,,0,CTP0133
CTP0133,488,Seguin,,47.33252,5.06838,,,1,
0134,490,Sainte Bernadette,,47.33128,5.06526,,,0,CTP0134
CTP0134,490,Sainte Bernadette,,47.33128,5.06526,,,1,
0135,863,"D'Alembert",,47.33108,5.06406,,,0,CTP0135
CTP0135,863,"D'Alembert",,47.33108,5.06406,,,1,
0136,1223,De Brosses,,47.32411,5.03689,,,0,CTP0136
CTP0136,1223,De Brosses,,47.32411,5.03689,,,1,
0138,493,Palais des Congres,,47.32859,5.05293,,,0,CTP0138
CTP0138,493,Palais des Congres,,47.32859,5.05293,,,1,
0143,240,Corvee,,47.30825,5.02358,,,0,CTP0143
CTP0143,240,Corvee,,47.30825,5.02358,,,1,
0144,241,Peyvets,,47.30657,5.02257,,,0,CTP0144
CTP0144,241,Peyvets,,47.30657,5.02257,,,1,
0146,243,Billetottes,,47.30186,5.01836,,,0,CTP0146
CTP0146,243,Billetottes,,47.30186,5.01836,,,1,
0147,244,Mairey,,47.3007,5.01699,,,0,CTP0147
CTP0147,244,Mairey,,47.3007,5.01699,,,1,
0148,245,Gambetta,,47.29815,5.01384,,,0,CTP0148
CTP0148,245,Gambetta,,47.29815,5.01384,,,1,
0149,246,Bazin,,47.29561,5.01163,,,0,CTP0149
CTP0149,246,Bazin,,47.29561,5.01163,,,1,
0152,249,Foussets,,47.2885,5.00584,,,0,CTP0152
CTP0152,249,Foussets,,47.2885,5.00584,,,1,
0153,250,Curie,,47.28641,5.00384,,,0,CTP0153
CTP0153,250,Curie,,47.28641,5.00384,,,1,
0154,251,Bicentenaire,,47.28527,5.00563,,,0,CTP0154
CTP0154,251,Bicentenaire,,47.28527,5.00563,,,1,
0155,253,Langevin,,47.28357,5.00969,,,0,CTP0155
CTP0155,253,Langevin,,47.28357,5.00969,,,1,
0156,228,Dom Plancher,,47.34185,5.04472,,,0,CTP0156
CTP0156,228,Dom Plancher,,47.34185,5.04472,,,1,
0158,230,College Roupnel,,47.33531,5.04411,,,0,CTP0158
CTP0158,230,College Roupnel,,47.33531,5.04411,,,1,
0159,231,Drapeau,,47.33291,5.04396,,,0,CTP0159
CTP0159,231,Drapeau,,47.33291,5.04396,,,1,
0160,232,Lavier,,47.33166,5.04373,,,0,CTP0160
CTP0160,232,Lavier,,47.33166,5.04373,,,1,
0161,1349,Richet,,47.3064,5.01564,,,0,CTP0161
CTP0161,1349,Richet,,47.3064,5.01564,,,1,
0163,702,Pommard,,47.3081,5.01849,,,0,CTP0163
CTP0163,702,Pommard,,47.3081,5.01849,,,1,
0164,703,Fyot,,47.3103,5.01505,,,0,CTP0164
CTP0164,703,Fyot,,47.3103,5.01505,,,1,
0165,663,Roussottes,,47.3123,5.00684,,,0,CTP0165
CTP0165,663,Roussottes,,47.3123,5.00684,,,1,
0169,502,Croix des Valendons,,47.30139,5.00824,,,0,CTP0169
CTP0169,502,Croix des Valendons,,47.30139,5.00824,,,1,
0170,503,Renan,,47.29913,5.00578,,,0,CTP0170
CTP0170,503,Renan,,47.29913,5.00578,,,1,
0171,504,College Chapitre,,47.29657,5.00443,,,0,CTP0171
CTP0171,504,College Chapitre,,47.29657,5.00443,,,1,
0173,380,Bouteiller,,47.32637,5.06901,,,0,CTP0173
CTP0173,380,Bouteiller,,47.32637,5.06901,,,1,
0174,476,Champ Prieur,,47.33068,5.09265,,,0,CTP0174
CTP0174,476,Champ Prieur,,47.33068,5.09265,,,1,
0175,475,Bons Compagnons,,47.33157,5.09125,,,0,CTP0175
CTP0175,475,Bons Compagnons,,47.33157,5.09125,,,1,
0176,373,"Paquier d'Aupre",,47.33185,5.08788,,,0,CTP0176
CTP0176,373,"Paquier d'Aupre",,47.33185,5.08788,,,1,
0177,478,Jacquat,,47.33142,5.08455,,,0,CTP0177
CTP0177,478,Jacquat,,47.33142,5.08455,,,1,
0178,479,Gauthier,,47.3309,5.08117,,,0,CTP0178
CTP0178,479,Gauthier,,47.3309,5.08117,,,1,
0179,385,Longenes,,47.33026,5.07683,,,0,CTP0179
CTP0179,385,Longenes,,47.33026,5.07683,,,1,
0180,386,Castelnau,,47.32965,5.07329,,,0,CTP0180
CTP0180,386,Castelnau,,47.32965,5.07329,,,1,
0182,145,SNCF Brifaut,,47.32443,5.02782,,,0,CTP0182
CTP0182,145,SNCF Brifaut,,47.32443,5.02782,,,1,
0183,146,Bagatelle,,47.32338,5.02192,,,0,CTP0183
CTP0183,146,Bagatelle,,47.32338,5.02192,,,1,
0186,149,Marmuzots,,47.32821,5.01264,,,0,CTP0186
CTP0186,149,Marmuzots,,47.32821,5.01264,,,1,
0187,150,Fontaine aux Fees,,47.32955,5.01068,,,0,CTP0187
CTP0187,150,Fontaine aux Fees,,47.32955,5.01068,,,1,
0188,151,Liberation,,47.33269,5.01040,,,0,CTP0188
CTP0188,151,Liberation,,47.33269,5.01040,,,1,
0189,780,Cottages,,47.33323,5.00883,,,0,CTP0189
CTP0189,780,Cottages,,47.33323,5.00883,,,1,
0190,153,Cote aux Moines,,47.3378,5.00924,,,0,CTP0190
CTP0190,153,Cote aux Moines,,47.3378,5.00924,,,1,
0191,154,Place des Arbaletriers,,47.33815,5.00355,,,0,CTP0191
CTP0191,154,Place des Arbaletriers,,47.33815,5.00355,,,1,
0192,155,Logis de Bourgogne,,47.33901,4.99833,,,0,CTP0192
CTP0192,155,Logis de Bourgogne,,47.33901,4.99833,,,1,
0193,558,"d'Arbaumont",,47.31343,5.05514,,,0,CTP0193
CTP0193,558,"d'Arbaumont",,47.31343,5.05514,,,1,
0194,557,Petites Roches,,47.31333,5.05760,,,0,CTP0194
CTP0194,557,Petites Roches,,47.31333,5.05760,,,1,
0197,274,Mazen Sully,,47.31576,5.07508,,,0,CTP0197
CTP0197,274,Mazen Sully,,47.31576,5.07508,,,1,
0199,824,CREPS,,47.31176,5.08076,,,0,CTP0199
CTP0199,824,CREPS,,47.31176,5.08076,,,1,
0200,1060,Gendarmerie,,47.31701,5.12190,,,0,CTP0200
CTP0200,1060,Gendarmerie,,47.31701,5.12190,,,1,
0201,1061,Croix St Martin,,47.31478,5.12081,,,0,CTP0201
CTP0201,1061,Croix St Martin,,47.31478,5.12081,,,1,
0202,61,Quetignerot,,47.30986,5.10756,,,0,CTP0202
CTP0202,61,Quetignerot,,47.30986,5.10756,,,1,
0203,60,Atria,,47.30848,5.11005,,,0,CTP0203
CTP0203,60,Atria,,47.30848,5.11005,,,1,
0204,201,Quetigny Centre,,47.31379,5.11015,,,0,CTP0204
CTP0204,201,Quetigny Centre,,47.31379,5.11015,,,1,
0205,576,Village Auto,,47.35243,5.06736,,,0,CTP0205
CTP0205,576,Village Auto,,47.35243,5.06736,,,1,
0206,1062,Quetigny Mairie,,47.31231,5.11559,,,0,CTP0206
CTP0206,1062,Quetigny Mairie,,47.31231,5.11559,,,1,
0208,1369,IUT,,47.30975,5.06919,,,0,CTP0208
CTP0208,1369,IUT,,47.30975,5.06919,,,1,
0210,1174,Lechenet,,47.33162,5.07739,,,0,CTP0210
CTP0210,1174,Lechenet,,47.33162,5.07739,,,1,
0211,203,Piscine olympique,,47.3152,5.08186,,,0,CTP0211
CTP0211,203,Piscine olympique,,47.3152,5.08186,,,1,
0212,1370,21e Siecle,,47.30943,5.07195,,,0,CTP0212
CTP0212,1370,21e Siecle,,47.30943,5.07195,,,1,
0213,17,Boulanger,,47.31732,5.06447,,,0,CTP0213
CTP0213,17,Boulanger,,47.31732,5.06447,,,1,
0214,18,Defense,,47.31731,5.06223,,,0,CTP0214
CTP0214,18,Defense,,47.31731,5.06223,,,1,
0215,19,"Creux d'Enfer",,47.31765,5.05837,,,0,CTP0215
CTP0215,19,"Creux d'Enfer",,47.31765,5.05837,,,1,
0217,85,Voltaire,,47.31867,5.05234,,,0,CTP0217
CTP0217,85,Voltaire,,47.31867,5.05234,,,1,
0218,21,Lycee H.Fontaine,,47.31876,5.05082,,,0,CTP0218
CTP0218,21,Lycee H.Fontaine,,47.31876,5.05082,,,1,
0219,22,Saumaise,,47.31968,5.04670,,,0,CTP0219
CTP0219,22,Saumaise,,47.31968,5.04670,,,1,
0220,83,Saumaise,,47.32023,5.04517,,,0,CTP0219
0222,390,Franklin,,47.31713,5.04098,,,0,CTP0222
CTP0222,390,Franklin,,47.31713,5.04098,,,1,
0223,160,Lavoisier,,47.28406,5.04371,,,0,CTP0223
CTP0223,160,Lavoisier,,47.28406,5.04371,,,1,
0227,310,Palissy,,47.28664,5.01707,,,0,CTP0227
CTP0227,310,Palissy,,47.28664,5.01707,,,1,
0230,90,La Gentiane,,47.28012,5.11306,,,0,CTP0230
CTP0230,90,La Gentiane,,47.28012,5.11306,,,1,
0232,481,Les Jardins,,47.3352,5.07518,,,0,CTP0232
CTP0232,481,Les Jardins,,47.3352,5.07518,,,1,
0233,480,Les Buttes,,47.33734,5.07977,,,0,CTP0233
CTP0233,480,Les Buttes,,47.33734,5.07977,,,1,
0234,370,La Planchotte,,47.33666,5.08406,,,0,CTP0234
CTP0234,370,La Planchotte,,47.33666,5.08406,,,1,
0237,1607,Neel,,47.29148,5.04593,,,0,CTP0237
CTP0237,1607,Neel,,47.29148,5.04593,,,1,
0238,396,SNCF Vincenot,,47.32258,5.02630,,,0,CTP0238
CTP0238,396,SNCF Vincenot,,47.32258,5.02630,,,1,
0239,397,Albert 1er,,47.32247,5.01936,,,0,CTP0239
CTP0239,397,Albert 1er,,47.32247,5.01936,,,1,
0240,398,CHS La Chartreuse,,47.32214,5.01092,,,0,CTP0240
CTP0240,398,CHS La Chartreuse,,47.32214,5.01092,,,1,
0241,399,Gorgets,,47.32057,5.00870,,,0,CTP0241
CTP0241,399,Gorgets,,47.32057,5.00870,,,1,
0242,400,Av. du Lac,,47.31902,5.00605,,,0,CTP0242
CTP0242,400,Av. du Lac,,47.31902,5.00605,,,1,
0244,402,Bachelard,,47.31887,5.00139,,,0,CTP0244
CTP0244,402,Bachelard,,47.31887,5.00139,,,1,
0245,403,Champs Perdrix,,47.31986,5.00404,,,0,CTP0245
CTP0245,403,Champs Perdrix,,47.31986,5.00404,,,1,
0246,404,Piscine,,47.32194,5.00207,,,0,CTP0246
CTP0246,404,Piscine,,47.32194,5.00207,,,1,
0251,338,Jura,,47.34243,5.02513,,,0,CTP0251
CTP0251,338,Jura,,47.34243,5.02513,,,1,
0252,331,Ranelagh,,47.34181,5.02923,,,0,CTP0252
CTP0252,331,Ranelagh,,47.34181,5.02923,,,1,
0253,420,Camelias,,47.34131,5.03147,,,0,CTP0253
CTP0253,420,Camelias,,47.34131,5.03147,,,1,
0254,419,Morvan,,47.34078,5.03405,,,0,CTP0254
CTP0254,419,Morvan,,47.34078,5.03405,,,1,
0256,416,Ghys,,47.33606,5.03354,,,0,CTP0256
CTP0256,416,Ghys,,47.33606,5.03354,,,1,
0257,415,Claude Hoin,,47.33383,5.03417,,,0,CTP0257
CTP0257,415,Claude Hoin,,47.33383,5.03417,,,1,
0259,741,Beaune,,47.33113,5.03841,,,0,CTP0259
CTP0259,741,Beaune,,47.33113,5.03841,,,1,
0262,306,Mare,,47.344,5.01690,,,0,CTP0262
CTP0262,306,Mare,,47.344,5.01690,,,1,
0264,795,Combottes,,47.33984,5.01729,,,0,CTP0264
CTP0264,795,Combottes,,47.33984,5.01729,,,1,
0266,302,Amandiers,,47.33764,5.02319,,,0,CTP0266
CTP0266,302,Amandiers,,47.33764,5.02319,,,1,
0267,1245,Peguy,,47.33753,5.01647,,,0,CTP0267
CTP0267,1245,Peguy,,47.33753,5.01647,,,1,
0269,299,Bizet,,47.33231,5.02770,,,0,CTP0269
CTP0269,299,Bizet,,47.33231,5.02770,,,1,
0270,298,Rouen,,47.33111,5.03314,,,0,CTP0270
CTP0270,298,Rouen,,47.33111,5.03314,,,1,
0271,209,Dubois,,47.32517,5.03195,,,0,CTP0271
CTP0271,209,Dubois,,47.32517,5.03195,,,1,
0273,34,Chaumiere,,47.33699,5.01200,,,0,CTP0273
CTP0273,34,Chaumiere,,47.33699,5.01200,,,1,
0274,35,Herriot,,47.33794,5.01042,,,0,CTP0274
CTP0274,35,Herriot,,47.33794,5.01042,,,1,
0275,37,Moulissards,,47.34275,4.99908,,,0,CTP0275
CTP0275,37,Moulissards,,47.34275,4.99908,,,1,
0276,38,Nachey,,47.34072,4.99689,,,0,CTP0276
CTP0276,38,Nachey,,47.34072,4.99689,,,1,
0278,40,Picasso,,47.33788,4.99485,,,0,CTP0278
CTP0278,40,Picasso,,47.33788,4.99485,,,1,
0279,41,Mail,,47.33725,4.99378,,,0,CTP0279
CTP0279,41,Mail,,47.33725,4.99378,,,1,
0280,42,Retisseys,,47.33865,4.99115,,,0,CTP0280
CTP0280,42,Retisseys,,47.33865,4.99115,,,1,
0286,199,Eiffel,,47.28109,5.05003,,,0,CTP0286
CTP0286,199,Eiffel,,47.28109,5.05003,,,1,
0287,309,Route de Beaune,,47.28763,5.01363,,,0,CTP0287
CTP0287,309,Route de Beaune,,47.28763,5.01363,,,1,
0288,300,Vieux Bourg,,47.29149,5.00344,,,0,CTP0288
CTP0288,300,Vieux Bourg,,47.29149,5.00344,,,1,
0290,972,Drouot,,47.31082,5.01030,,,0,CTP0290
CTP0290,972,Drouot,,47.31082,5.01030,,,1,
0291,220,1er Mai,,47.31475,5.02874,,,0,CTP0291
CTP0291,220,1er Mai,,47.31475,5.02874,,,1,
0292,218,Jaures,,47.31081,5.02642,,,0,CTP0292
CTP0292,218,Jaures,,47.31081,5.02642,,,1,
0293,497,Bourroches,,47.3045,5.02295,,,0,CTP0293
CTP0293,497,Bourroches,,47.3045,5.02295,,,1,
0294,498,Carraz,,47.30082,5.02077,,,0,CTP0294
CTP0294,498,Carraz,,47.30082,5.02077,,,1,
0295,575,Pont de Churchil,,47.35156,5.06279,,,0,CTP0295
CTP0295,575,Pont de Churchil,,47.35156,5.06279,,,1,
0296,578,Bailly,,47.35051,5.07869,,,0,CTP0296
CTP0296,578,Bailly,,47.35051,5.07869,,,1,
0298,574,Perrenet,,47.34854,5.06281,,,0,CTP0298
CTP0298,574,Perrenet,,47.34854,5.06281,,,1,
0299,580,Malines,,47.34545,5.07511,,,0,CTP0299
CTP0299,580,Malines,,47.34545,5.07511,,,1,
0300,573,Quignard,,47.3499,5.06903,,,0,CTP0300
CTP0300,573,Quignard,,47.3499,5.06903,,,1,
0301,581,La Breuchilliere,,47.34425,5.07286,,,0,CTP0301
CTP0301,581,La Breuchilliere,,47.34425,5.07286,,,1,
0302,572,Cluj,,47.34607,5.06657,,,0,CTP0302
CTP0302,572,Cluj,,47.34607,5.06657,,,1,
0303,582,La Brot,,47.34294,5.07398,,,0,CTP0303
CTP0303,582,La Brot,,47.34294,5.07398,,,1,
0304,571,Chaput,,47.34437,5.06530,,,0,CTP0304
CTP0304,571,Chaput,,47.34437,5.06530,,,1,
0305,546,Bastogne,,47.34158,5.07445,,,0,CTP0305
CTP0305,546,Bastogne,,47.34158,5.07445,,,1,
0310,1077,Colchide,,47.35394,5.05829,,,0,CTP0310
CTP0310,1077,Colchide,,47.35394,5.05829,,,1,
0311,1018,La Flamme,,47.34559,4.96452,,,0,CTP0311
CTP0311,1018,La Flamme,,47.34559,4.96452,,,1,
0312,1017,Courtois,,47.34404,4.96530,,,0,CTP0312
CTP0312,1017,Courtois,,47.34404,4.96530,,,1,
0313,547,Mayence,,47.33911,5.06419,,,0,CTP0313
CTP0313,547,Mayence,,47.33911,5.06419,,,1,
0314,1015,Victor Hugo,,47.34087,4.97002,,,0,CTP0314
CTP0314,1015,Victor Hugo,,47.34087,4.97002,,,1,
0315,1014,Plombieres Mairie,,47.3399,4.97312,,,0,CTP0315
CTP0315,1014,Plombieres Mairie,,47.3399,4.97312,,,1,
0316,1013,Vallon,,47.33891,4.97583,,,0,CTP0316
CTP0316,1013,Vallon,,47.33891,4.97583,,,1,
0317,1012,Combe aux Fees,,47.33738,4.97984,,,0,CTP0317
CTP0317,1012,Combe aux Fees,,47.33738,4.97984,,,1,
0319,1009,Seize Vannes,,47.33193,4.99076,,,0,CTP0319
CTP0319,1009,Seize Vannes,,47.33193,4.99076,,,1,
0320,1008,Parc a Bateaux,,47.32999,4.99903,,,0,CTP0320
CTP0320,1008,Parc a Bateaux,,47.32999,4.99903,,,1,
0322,1006,CHS La Chartreuse,,47.32268,5.01115,,,0,CTP0240
0324,1297,Beauregard,,47.28081,5.05356,,,0,CTP0324
CTP0324,1297,Beauregard,,47.28081,5.05356,,,1,
0327,745,Transvaal,,47.3154,5.03807,,,0,CTP0327
CTP0327,745,Transvaal,,47.3154,5.03807,,,1,
0329,739,Mazieres,,47.33618,5.03972,,,0,CTP0329
CTP0329,739,Mazieres,,47.33618,5.03972,,,1,
0330,740,Houblonniere,,47.33295,5.03892,,,0,CTP0330
CTP0330,740,Houblonniere,,47.33295,5.03892,,,1,
0331,973,Rossignol Eiffel,,47.31242,5.01018,,,0,CTP0331
CTP0331,973,Rossignol Eiffel,,47.31242,5.01018,,,1,
0332,679,1er Mai Foyer,,47.31471,5.03116,,,0,CTP0332
CTP0332,679,1er Mai Foyer,,47.31471,5.03116,,,1,
0333,901,Alger,,47.31166,5.03282,,,0,CTP0333
CTP0333,901,Alger,,47.31166,5.03282,,,1,
0334,744,Petit-Citeaux,,47.31533,5.03422,,,0,CTP0334
CTP0334,744,Petit-Citeaux,,47.31533,5.03422,,,1,
0336,875,Tournois,,47.30779,5.04163,,,0,CTP0336
CTP0336,875,Tournois,,47.30779,5.04163,,,1,
0337,876,Chancenotte,,47.30567,5.04830,,,0,CTP0079
0338,877,College Lentilleres,,47.30513,5.05212,,,0,CTP0338
CTP0338,877,College Lentilleres,,47.30513,5.05212,,,1,
0340,878,Pejoces,,47.31061,5.06022,,,0,CTP0340
CTP0340,878,Pejoces,,47.31061,5.06022,,,1,
0341,879,Faculte des lettres,,47.31302,5.06287,,,0,CTP0341
CTP0341,879,Faculte des lettres,,47.31302,5.06287,,,1,
0342,881,"Jeanne d'Arc",,47.31824,5.06548,,,0,CTP0342
CTP0342,881,"Jeanne d'Arc",,47.31824,5.06548,,,1,
0343,865,CHU - Hopitaux,,47.31902,5.06534,,,0,CTP0343
CTP0343,865,CHU - Hopitaux,,47.31902,5.06534,,,1,
0345,862,Laplace,,47.33254,5.06305,,,0,CTP0345
CTP0345,862,Laplace,,47.33254,5.06305,,,1,
0348,971,Saint Exupery,,47.33677,5.05555,,,0,CTP0348
CTP0348,971,Saint Exupery,,47.33677,5.05555,,,1,
0349,970,Junot,,47.33952,5.04550,,,0,CTP0349
CTP0349,970,Junot,,47.33952,5.04550,,,1,
0352,158,Pierrat,,47.28265,5.04634,,,0,CTP0352
CTP0352,158,Pierrat,,47.28265,5.04634,,,1,
0353,730,Presles,,47.35592,5.03444,,,0,CTP0353
CTP0353,730,Presles,,47.35592,5.03444,,,1,
0355,1432,Guesde,,47.28516,5.06856,,,0,CTP0355
CTP0355,1432,Guesde,,47.28516,5.06856,,,1,
0356,1623,Chenove Centre,,47.29432,5.00597,,,0,CTP0356
CTP0356,1623,Chenove Centre,,47.29432,5.00597,,,1,
0358,429,Rue du Port,,47.28605,5.04117,,,0,CTP0358
CTP0358,429,Rue du Port,,47.28605,5.04117,,,1,
0359,430,Romelet,,47.28698,5.04001,,,0,CTP0359
CTP0359,430,Romelet,,47.28698,5.04001,,,1,
0361,432,Bertin,,47.29349,5.03755,,,0,CTP0361
CTP0361,432,Bertin,,47.29349,5.03755,,,1,
0373,1323,"L'Ogive",,47.29416,5.12727,,,0,CTP0373
CTP0373,1323,"L'Ogive",,47.29416,5.12727,,,1,
0375,1265,Volnay,,47.31168,5.01482,,,0,CTP0375
CTP0375,1265,Volnay,,47.31168,5.01482,,,1,
0377,969,Terrillon,,47.33577,5.03125,,,0,CTP0377
CTP0377,969,Terrillon,,47.33577,5.03125,,,1,
0378,968,Suisse,,47.33487,5.02445,,,0,CTP0378
CTP0378,968,Suisse,,47.33487,5.02445,,,1,
0380,1383,Pasteur,,47.29525,5.13341,,,0,CTP0380
CTP0380,1383,Pasteur,,47.29525,5.13341,,,1,
0381,1334,Moliere,,47.30225,5.13255,,,0,CTP0381
CTP0381,1334,Moliere,,47.30225,5.13255,,,1,
0382,1063,College Rostand,,47.31685,5.10714,,,0,CTP0382
CTP0382,1063,College Rostand,,47.31685,5.10714,,,1,
0384,1227,Fevret,,47.31566,5.04058,,,0,CTP0384
CTP0384,1227,Fevret,,47.31566,5.04058,,,1,
0386,1359,Pres Potets,,47.35592,5.02692,,,0,CTP0386
CTP0386,1359,Pres Potets,,47.35592,5.02692,,,1,
0387,1187,Cromois,,47.31481,5.11268,,,0,CTP0387
CTP0387,1187,Cromois,,47.31481,5.11268,,,1,
0389,417,St-Martin,,47.33808,5.03602,,,0,CTP0389
CTP0389,417,St-Martin,,47.33808,5.03602,,,1,
0390,36,La Fillotte,,47.34055,5.00493,,,0,CTP0390
CTP0390,36,La Fillotte,,47.34055,5.00493,,,1,
0391,734,Le Suzon,,47.34675,5.03505,,,0,CTP0391
CTP0391,734,Le Suzon,,47.34675,5.03505,,,1,
0392,424,Les Charmes,,47.34552,5.02471,,,0,CTP0392
CTP0392,424,Les Charmes,,47.34552,5.02471,,,1,
0393,1274,Charton,,47.28554,5.02043,,,0,CTP0393
CTP0393,1274,Charton,,47.28554,5.02043,,,1,
0394,767,Grands Clos,,47.36775,5.02024,,,0,CTP0394
CTP0394,767,Grands Clos,,47.36775,5.02024,,,1,
0395,433,La Colombiere,,47.29777,5.03943,,,0,CTP0395
CTP0395,433,La Colombiere,,47.29777,5.03943,,,1,
0396,729,Les Plantes,,47.3642,5.02837,,,0,CTP0396
CTP0396,729,Les Plantes,,47.3642,5.02837,,,1,
0397,43,Neruda,,47.34052,4.98936,,,0,CTP0397
CTP0397,43,Neruda,,47.34052,4.98936,,,1,
0402,58,Visitation,,47.30439,5.11984,,,0,CTP0402
CTP0402,58,Visitation,,47.30439,5.11984,,,1,
0403,291,Stade Poussots,,47.30513,5.06164,,,0,CTP0403
CTP0403,291,Stade Poussots,,47.30513,5.06164,,,1,
0405,307,Cottin,,47.34639,5.01370,,,0,CTP0405
CTP0405,307,Cottin,,47.34639,5.01370,,,1,
0407,305,Confrerie,,47.34311,5.01904,,,0,CTP0407
CTP0407,305,Confrerie,,47.34311,5.01904,,,1,
0408,1010,Cherains,,47.33442,4.98720,,,0,CTP0408
CTP0408,1010,Cherains,,47.33442,4.98720,,,1,
0410,817,Grande Legie,,47.28958,5.10912,,,0,CTP0410
CTP0410,817,Grande Legie,,47.28958,5.10912,,,1,
0412,535,Dallas CRI,,47.33607,5.06210,,,0,CTP0412
CTP0412,535,Dallas CRI,,47.33607,5.06210,,,1,
0413,59,Lycee de Serres,,47.30794,5.11624,,,0,CTP0413
CTP0413,59,Lycee de Serres,,47.30794,5.11624,,,1,
0414,57,Bois du Roy,,47.30341,5.12223,,,0,CTP0414
CTP0414,57,Bois du Roy,,47.30341,5.12223,,,1,
0421,47,Clematites,,47.29994,5.13487,,,0,CTP0421
CTP0421,47,Clematites,,47.29994,5.13487,,,1,
0422,1052,Capucines,,47.30228,5.13993,,,0,CTP0422
CTP0422,1052,Capucines,,47.30228,5.13993,,,1,
0424,893,Perret,,47.30189,5.14280,,,0,CTP0424
CTP0424,893,Perret,,47.30189,5.14280,,,1,
0425,892,Geraniums,,47.29894,5.14369,,,0,CTP0425
CTP0425,892,Geraniums,,47.29894,5.14369,,,1,
0426,891,Artisans,,47.29336,5.14593,,,0,CTP0426
CTP0426,891,Artisans,,47.29336,5.14593,,,1,
0428,1353,Trois Saffres,,47.34716,5.03094,,,0,CTP0428
CTP0428,1353,Trois Saffres,,47.34716,5.03094,,,1,
0431,821,Bassin,,47.29801,5.10302,,,0,CTP0431
CTP0431,821,Bassin,,47.29801,5.10302,,,1,
0432,848,Dorain,,47.2931,5.10512,,,0,CTP0432
CTP0432,848,Dorain,,47.2931,5.10512,,,1,
0433,847,Normand,,47.29162,5.11028,,,0,CTP0433
CTP0433,847,Normand,,47.29162,5.11028,,,1,
0434,816,Le Fort,,47.28819,5.10580,,,0,CTP0434
CTP0434,816,Le Fort,,47.28819,5.10580,,,1,
0435,815,Mimosas,,47.29003,5.10288,,,0,CTP0435
CTP0435,815,Mimosas,,47.29003,5.10288,,,1,
0436,1053,Av. de Tavaux,,47.28774,5.13389,,,0,CTP0436
CTP0436,1053,Av. de Tavaux,,47.28774,5.13389,,,1,
0437,846,Montots,,47.28141,5.10649,,,0,CTP0437
CTP0437,846,Montots,,47.28141,5.10649,,,1,
0438,1054,Excellence 2000,,47.2834,5.13316,,,0,CTP0438
CTP0438,1054,Excellence 2000,,47.2834,5.13316,,,1,
0439,810,Racine,,47.27794,5.11120,,,0,CTP0439
CTP0439,810,Racine,,47.27794,5.11120,,,1,
0440,811,Corneille,,47.2783,5.11318,,,0,CTP0440
CTP0440,811,Corneille,,47.2783,5.11318,,,1,
0441,1313,Changey,,47.35444,4.99332,,,0,CTP0441
CTP0441,1313,Changey,,47.35444,4.99332,,,1,
0444,799,Rue de Dijon,,47.34998,5.00156,,,0,CTP0444
CTP0444,799,Rue de Dijon,,47.34998,5.00156,,,1,
0445,800,Bernard,,47.35125,4.99961,,,0,CTP0445
CTP0445,800,Bernard,,47.35125,4.99961,,,1,
0449,1121,Hauteville Mairie,,47.36413,4.99378,,,0,CTP0449
CTP0449,1121,Hauteville Mairie,,47.36413,4.99378,,,1,
0455,224,Europe,,47.3533,5.04577,,,0,CTP0455
CTP0455,224,Europe,,47.3533,5.04577,,,1,
0456,225,Kellerman,,47.35023,5.04548,,,0,CTP0456
CTP0456,225,Kellerman,,47.35023,5.04548,,,1,
0457,226,Nation,,47.34646,5.04515,,,0,CTP0457
CTP0457,226,Nation,,47.34646,5.04515,,,1,
0458,916,Verniquet,,47.34645,5.04301,,,0,CTP0458
CTP0458,916,Verniquet,,47.34645,5.04301,,,1,
0461,732,Coteaux du Suzon,,47.3507,5.03970,,,0,CTP0461
CTP0461,732,Coteaux du Suzon,,47.3507,5.03970,,,1,
0462,731,Touzet du Vigier,,47.35271,5.03779,,,0,CTP0462
CTP0462,731,Touzet du Vigier,,47.35271,5.03779,,,1,
0466,669,La Vapeur,,47.34555,5.05907,,,0,CTP0466
CTP0466,669,La Vapeur,,47.34555,5.05907,,,1,
0469,1138,Bressey ZA,,47.30808,5.16942,,,0,CTP0469
CTP0469,1138,Bressey ZA,,47.30808,5.16942,,,1,
0470,974,Tire Pesseau,,47.31582,5.00589,,,0,CTP0470
CTP0470,974,Tire Pesseau,,47.31582,5.00589,,,1,
0471,1191,Allende,,47.32136,5.10660,,,0,CTP0471
CTP0471,1191,Allende,,47.32136,5.10660,,,1,
0472,1190,Prevert,,47.32063,5.10910,,,0,CTP0472
CTP0472,1190,Prevert,,47.32063,5.10910,,,1,
0473,1189,Camus,,47.31905,5.10964,,,0,CTP0473
CTP0473,1189,Camus,,47.31905,5.10964,,,1,
0474,783,Cortots,,47.35386,5.02615,,,0,CTP0474
CTP0474,783,Cortots,,47.35386,5.02615,,,1,
0475,426,Ratel,,47.34975,5.02847,,,0,CTP0475
CTP0475,426,Ratel,,47.34975,5.02847,,,1,
0476,427,Belfontaine,,47.3522,5.03036,,,0,CTP0476
CTP0476,427,Belfontaine,,47.3522,5.03036,,,1,
0478,918,Poncelet,,47.34124,5.04196,,,0,CTP0478
CTP0478,918,Poncelet,,47.34124,5.04196,,,1,
0479,1123,Les Collines,,47.36774,4.99096,,,0,CTP0479
CTP0479,1123,Les Collines,,47.36774,4.99096,,,1,
0481,577,Ardennes,,47.3523,5.06762,,,0,CTP0481
CTP0481,577,Ardennes,,47.3523,5.06762,,,1,
0482,822,Complexe Funeraire,,47.30508,5.09272,,,0,CTP0482
CTP0482,822,Complexe Funeraire,,47.30508,5.09272,,,1,
0483,1311,Alisiers,,47.34695,5.00150,,,0,CTP0483
CTP0483,1311,Alisiers,,47.34695,5.00150,,,1,
0486,665,Churchill,,47.35302,5.05343,,,0,CTP0486
CTP0486,665,Churchill,,47.35302,5.05343,,,1,
0487,666,Granville,,47.34999,5.05201,,,0,CTP0487
CTP0487,666,Granville,,47.34999,5.05201,,,1,
0488,667,Marcel Proust,,47.34876,5.05614,,,0,CTP0488
CTP0488,667,Marcel Proust,,47.34876,5.05614,,,1,
0490,463,Petit Ouges,,47.25432,5.08613,,,0,CTP0490
CTP0490,463,Petit Ouges,,47.25432,5.08613,,,1,
0491,464,De Gaulle,,47.2575,5.08263,,,0,CTP0491
CTP0491,464,De Gaulle,,47.2575,5.08263,,,1,
0492,465,Ouges Mairie,,47.26252,5.07512,,,0,CTP0492
CTP0492,465,Ouges Mairie,,47.26252,5.07512,,,1,
0495,466,Tilleul,,47.26363,5.07076,,,0,CTP0495
CTP0495,466,Tilleul,,47.26363,5.07076,,,1,
0496,1037,Ecluse,,47.27912,5.06267,,,0,CTP0496
CTP0496,1037,Ecluse,,47.27912,5.06267,,,1,
0497,1044,Terminal,,47.278,5.06982,,,0,CTP0497
CTP0497,1044,Terminal,,47.278,5.06982,,,1,
0498,1140,La Pringolle,,47.23273,5.06167,,,0,CTP0498
CTP0498,1140,La Pringolle,,47.23273,5.06167,,,1,
0499,1142,Colleys,,47.25736,5.04754,,,0,CTP0499
CTP0499,1142,Colleys,,47.25736,5.04754,,,1,
0502,1034,Perrigny Mairie,,47.26582,5.00686,,,0,CTP0502
CTP0502,1034,Perrigny Mairie,,47.26582,5.00686,,,1,
0503,1033,Tourelle,,47.26708,5.00538,,,0,CTP0503
CTP0503,1033,Tourelle,,47.26708,5.00538,,,1,
0504,1032,Terreau du Moulin,,47.26978,5.00771,,,0,CTP0504
CTP0504,1032,Terreau du Moulin,,47.26978,5.00771,,,1,
0505,1031,Lapostolet,,47.27331,5.00974,,,0,CTP0505
CTP0505,1031,Lapostolet,,47.27331,5.00974,,,1,
0507,1030,Vignery,,47.27279,5.00619,,,0,CTP0507
CTP0507,1030,Vignery,,47.27279,5.00619,,,1,
0508,1029,CAT ESAT,,47.27413,5.00605,,,0,CTP0508
CTP0508,1029,CAT ESAT,,47.27413,5.00605,,,1,
0509,1028,Cap Sud,,47.27829,5.00897,,,0,CTP0509
CTP0509,1028,Cap Sud,,47.27829,5.00897,,,1,
0510,962,Dardelain,,47.27852,5.00989,,,0,CTP0510
CTP0510,962,Dardelain,,47.27852,5.00989,,,1,
0513,1251,Colombier,,47.26967,4.99083,,,0,CTP0513
CTP0513,1251,Colombier,,47.26967,4.99083,,,1,
0514,1250,Mechalot,,47.27183,4.99132,,,0,CTP0514
CTP0514,1250,Mechalot,,47.27183,4.99132,,,1,
0515,1249,St-Vincent,,47.27522,4.99441,,,0,CTP0515
CTP0515,1249,St-Vincent,,47.27522,4.99441,,,1,
0519,923,Limburgerhof,,47.29198,5.01526,,,0,CTP0519
CTP0519,923,Limburgerhof,,47.29198,5.01526,,,1,
0520,922,Ferry,,47.29499,5.01726,,,0,CTP0520
CTP0520,922,Ferry,,47.29499,5.01726,,,1,
0522,925,College Ayme,,47.28035,5.00311,,,0,CTP0522
CTP0522,925,College Ayme,,47.28035,5.00311,,,1,
0523,926,Rameau,,47.27848,5.00023,,,0,CTP0523
CTP0523,926,Rameau,,47.27848,5.00023,,,1,
0531,378,Opaline,,47.33303,5.09056,,,0,CTP0531
CTP0531,378,Opaline,,47.33303,5.09056,,,1,
0532,377,Marie de Bourgogne,,47.33426,5.08884,,,0,CTP0532
CTP0532,377,Marie de Bourgogne,,47.33426,5.08884,,,1,
0533,597,Flandres,,47.35528,5.06530,,,0,CTP0533
CTP0533,597,Flandres,,47.35528,5.06530,,,1,
0534,223,Nations Unies,,47.35484,5.04721,,,0,CTP0534
CTP0534,223,Nations Unies,,47.35484,5.04721,,,1,
0536,1081,Prefecture,,47.32433,5.04189,,,0,CTP0536
CTP0536,1081,Prefecture,,47.32433,5.04189,,,1,
0537,1082,Notre Dame,,47.32294,5.04105,,,0,CTP0537
CTP0537,1082,Notre Dame,,47.32294,5.04105,,,1,
0539,1084,Darcy,,47.323,5.03490,,,0,CTP0539
CTP0539,1084,Darcy,,47.323,5.03490,,,1,
0540,1085,St-Benigne,,47.32149,5.03372,,,0,CTP0540
CTP0540,1085,St-Benigne,,47.32149,5.03372,,,1,
0542,46,Parvis Saint Jean,,47.32017,5.03604,,,0,CTP0542
CTP0542,46,Parvis Saint Jean,,47.32017,5.03604,,,1,
0543,1088,Crebillon,,47.31832,5.03616,,,0,CTP0543
CTP0543,1088,Crebillon,,47.31832,5.03616,,,1,
0544,12194,Berbisey,,47.31762,5.03444,,,0,CTP0544
CTP0544,12194,Berbisey,,47.31762,5.03444,,,1,
0545,1090,Manutention,,47.31692,5.03368,,,0,CTP0545
CTP0545,1090,Manutention,,47.31692,5.03368,,,1,
0546,1091,Tivoli,,47.31667,5.03756,,,0,CTP0546
CTP0546,1091,Tivoli,,47.31667,5.03756,,,1,
0547,1092,Dumay,,47.31841,5.03820,,,0,CTP0547
CTP0547,1092,Dumay,,47.31841,5.03820,,,1,
0548,1093,Cordeliers,,47.31894,5.04034,,,0,CTP0548
CTP0548,1093,Cordeliers,,47.31894,5.04034,,,1,
0551,214,Pole Sante,,47.36201,5.05016,,,0,CTP0551
CTP0551,214,Pole Sante,,47.36201,5.05016,,,1,
0552,1177,Barret,,47.36426,5.04941,,,0,CTP0552
CTP0552,1177,Barret,,47.36426,5.04941,,,1,
0553,1176,Giroud,,47.36485,5.04937,,,0,CTP0553
CTP0553,1176,Giroud,,47.36485,5.04937,,,1,
0554,1175,Valmy,,47.36562,5.04720,,,0,CTP0554
CTP0554,1175,Valmy,,47.36562,5.04720,,,1,
0555,1208,Brossolette,,47.34213,4.99103,,,0,CTP0555
CTP0555,1208,Brossolette,,47.34213,4.99103,,,1,
0557,1205,Milsand,,47.30871,5.03846,,,0,CTP0557
CTP0557,1205,Milsand,,47.30871,5.03846,,,1,
0558,1224,Suquet,,47.31592,5.03291,,,0,CTP0558
CTP0558,1224,Suquet,,47.31592,5.03291,,,1,
0559,1409,Yourcenar,,47.35146,5.05717,,,0,CTP0559
CTP0559,1409,Yourcenar,,47.35146,5.05717,,,1,
0563,164,Sembat,,47.29738,5.02253,,,0,CTP0563
CTP0563,164,Sembat,,47.29738,5.02253,,,1,
0564,1267,St-Jacques,,47.30696,5.02007,,,0,CTP0564
CTP0564,1267,St-Jacques,,47.30696,5.02007,,,1,
0565,1278,Claudel,,47.30654,4.99741,,,0,CTP0565
CTP0565,1278,Claudel,,47.30654,4.99741,,,1,
0566,1279,Divio,,47.30409,4.99804,,,0,CTP0566
CTP0566,1279,Divio,,47.30409,4.99804,,,1,
0567,1298,Verriers,,47.30085,5.03628,,,0,CTP0567
CTP0567,1298,Verriers,,47.30085,5.03628,,,1,
0568,1295,Ateliers APF,,47.28997,5.04885,,,0,CTP0568
CTP0568,1295,Ateliers APF,,47.28997,5.04885,,,1,
0569,1312,Daix Mairie,,47.35245,4.99784,,,0,CTP0569
CTP0569,1312,Daix Mairie,,47.35245,4.99784,,,1,
0570,1397,Chambertin,,47.36697,4.99877,,,0,CTP0570
CTP0570,1397,Chambertin,,47.36697,4.99877,,,1,
0571,1396,La Paisse,,47.36847,4.98799,,,0,CTP0571
CTP0571,1396,La Paisse,,47.36847,4.98799,,,1,
0572,1332,Champs Creux,,47.30072,5.12278,,,0,CTP0572
CTP0572,1332,Champs Creux,,47.30072,5.12278,,,1,
0573,1402,York,,47.33098,5.05905,,,0,CTP0573
CTP0573,1402,York,,47.33098,5.05905,,,1,
0574,1389,Pompon,,47.33348,5.02338,,,0,CTP0574
CTP0574,1389,Pompon,,47.33348,5.02338,,,1,
0575,1650,Quetigny Centre Commercial,,47.31141,5.10482,,,0,CTP0575
CTP0575,1650,Quetigny Centre Commercial,,47.31141,5.10482,,,1,
0576,1639,La Mirandiere,,47.30822,5.10590,,,0,CTP0576
CTP0576,1639,La Mirandiere,,47.30822,5.10590,,,1,
0579,1665,Tirbaude,,47.32886,5.08922,,,0,CTP0579
CTP0579,1665,Tirbaude,,47.32886,5.08922,,,1,
0580,1619,Baudelaire,,47.34877,5.04319,,,0,CTP0580
CTP0580,1619,Baudelaire,,47.34877,5.04319,,,1,
0581,1620,College Malraux,,47.35104,5.03556,,,0,CTP0581
CTP0581,1620,College Malraux,,47.35104,5.03556,,,1,
0582,48,Liberte,,47.32203,5.03853,,,0,CTP0582
CTP0582,48,Liberte,,47.32203,5.03853,,,1,
0583,1625,Piece Leger,,47.27745,5.01550,,,0,CTP0583
CTP0583,1625,Piece Leger,,47.27745,5.01550,,,1,
0584,1621,Monge,,47.31818,5.03088,,,0,CTP0584
CTP0584,1621,Monge,,47.31818,5.03088,,,1,
0585,1635,Vaillant,,47.32966,5.04328,,,0,CTP0585
CTP0585,1635,Vaillant,,47.32966,5.04328,,,1,
0588,1641,Champs aux Metiers,,47.30737,5.09828,,,0,CTP0588
CTP0588,1641,Champs aux Metiers,,47.30737,5.09828,,,1,
0589,1643,Oree du Bois,,47.27628,5.11888,,,0,CTP0589
CTP0589,1643,Oree du Bois,,47.27628,5.11888,,,1,
0590,1642,Neuilly,,47.28002,5.10733,,,0,CTP0590
CTP0590,1642,Neuilly,,47.28002,5.10733,,,1,
0591,111,Seurre,,47.29186,5.13965,,,0,CTP0591
CTP0591,111,Seurre,,47.29186,5.13965,,,1,
0592,1,Petite Fin,,47.34865,5.03096,,,0,CTP0592
CTP0592,1,Petite Fin,,47.34865,5.03096,,,1,
0598,11,Beaux Arts,,47.32225,5.04225,,,0,CTP0598
CTP0598,11,Beaux Arts,,47.32225,5.04225,,,1,
0599,13,Cordeliers,,47.31895,5.04090,,,0,CTP0548
0600,14,Roussin,,47.31999,5.03910,,,0,CTP0600
CTP0600,14,Roussin,,47.31999,5.03910,,,1,
0601,15,Bossuet,,47.32099,5.03728,,,0,CTP0024
0602,49,Forges,,47.32225,5.04017,,,0,CTP0602
CTP0602,49,Forges,,47.32225,5.04017,,,1,
0604,106,Fauconnet,,47.33796,5.03980,,,0,CTP0604
CTP0604,106,Fauconnet,,47.33796,5.03980,,,1,
0605,387,Rente Neuve,,47.32505,4.92091,,,0,CTP0605
CTP0605,387,Rente Neuve,,47.32505,4.92091,,,1,
0607,50,Beaux Arts,,47.32221,5.04210,,,0,CTP0598
0611,179,Piscine olympique,,47.31477,5.08206,,,0,CTP0211
0612,129,A. Patte,,47.27832,4.91864,,,0,CTP0612
CTP0612,129,A. Patte,,47.27832,4.91864,,,1,
0613,143,Les Pins,,47.29461,4.93714,,,0,CTP0613
CTP0613,143,Les Pins,,47.29461,4.93714,,,1,
0614,147,Corcelles les Monts,,47.29533,4.94019,,,0,CTP0614
CTP0614,147,Corcelles les Monts,,47.29533,4.94019,,,1,
0615,157,Combe a la Serpent,,47.3011,4.96074,,,0,CTP0615
CTP0615,157,Combe a la Serpent,,47.3011,4.96074,,,1,
0616,204,Valendons,,47.30186,5.01525,,,0,CTP0616
CTP0616,204,Valendons,,47.30186,5.01525,,,1,
0621,247,Erasme - CHU,,47.31669,5.06887,,,0,CTP0621
CTP0621,247,Erasme - CHU,,47.31669,5.06887,,,1,
0622,357,Saint Vincent de Paul,,47.30328,4.99042,,,0,CTP0622
CTP0622,357,Saint Vincent de Paul,,47.30328,4.99042,,,1,
0623,437,Bourvil,,47.29018,5.12954,,,0,CTP0623
CTP0623,437,Bourvil,,47.29018,5.12954,,,1,
1623,438,Bourvil,,47.28999,5.12930,,,0,CTP0623
0624,434,Trianon,,47.28750,5.12724,,,0,CTP0624
CTP0624,434,Trianon,,47.28750,5.12724,,,1,
1624,439,Trianon,,47.28751,5.12717,,,0,CTP0624
1002,695,Quantin,,47.34084,5.05737,,,0,CTP0002
1003,694,Joffre,,47.34014,5.05341,,,0,CTP0003
1006,691,Giraud,,47.33625,5.05165,,,0,CTP0006
1007,690,Alsace,,47.33491,5.05325,,,0,CTP0007
1008,689,Reims,,47.33318,5.05211,,,0,CTP0008
1021,104,Giono,,47.35218,5.04865,,,0,CTP0021
1030,1286,Verdun,,47.34461,5.03298,,,0,CTP0030
1032,633,Faubourg de Raines,,47.3178,5.02704,,,0,CTP0032
1033,650,Rolin,,47.3157,5.02783,,,0,CTP0033
1035,631,Marillier,,47.31408,5.02018,,,0,CTP0035
1036,630,Diebold,,47.31372,5.01707,,,0,CTP0036
1037,629,Bourroches Eiffel,,47.3133,5.01307,,,0,CTP0037
1038,619,IME Montagne Sainte-Anne,,47.30163,4.99098,,,0,CTP1038
CTP1038,619,IME Montagne Sainte-Anne,,47.30163,4.99098,,,1,
103M,192,Valentin,,47.28789,5.06109,,,0,CTP103M
CTP103M,192,Valentin,,47.28789,5.06109,,,1,
1041,661,"Patte d'Oie",,47.3118,5.00381,,,0,CTP0041
1043,625,Dadolle,,47.30788,4.99956,,,0,CTP0043
1046,621,Sembel,,47.30436,4.99111,,,0,CTP1046
CTP1046,621,Sembel,,47.30436,4.99111,,,1,
1052,1050,la Garande,,47.24314,5.11241,,,0,CTP0052
1053,660,Noblemaire,,47.31122,5.00057,,,0,CTP0053
1056,1049,Silo,,47.24111,5.10465,,,0,CTP0056
1057,162,Cent Ecus,,47.31021,4.99647,,,0,CTP0057
1058,647,Clos Chauveau,,47.31456,5.00093,,,0,CTP0058
1059,646,"Lycee Marcs d'Or",,47.31545,4.99790,,,0,CTP0059
1060,645,Paupion,,47.31628,4.99573,,,0,CTP0060
1061,644,CFA-BTP,,47.31692,4.99179,,,0,CTP0061
1062,643,Saulx Tavannes,,47.31696,4.98925,,,0,CTP0062
1066,1405,Duhamel,,47.28394,5.05656,,,0,CTP1066
CTP1066,1405,Duhamel,,47.28394,5.05656,,,1,
1068,195,Longvic Mairie,,47.28448,5.06294,,,0,CTP0068
1069,194,"Bles d'Or",,47.28584,5.06663,,,0,CTP0069
1070,193,Prevots,,47.28701,5.06306,,,0,CTP1070
CTP1070,193,Prevots,,47.28701,5.06306,,,1,
1074,191,Pommerets,,47.29417,5.05597,,,0,CTP0074
1075,190,Tamaris,,47.29654,5.05387,,,0,CTP0075
1076,189,Bourillot,,47.29817,5.05289,,,0,CTP0076
1077,188,Barbusse,,47.30157,5.05026,,,0,CTP0077
1079,186,Chancenotte,,47.30461,5.04790,,,0,CTP0079
1080,185,Piscine Carrousel,,47.30688,5.04683,,,0,CTP0080
1081,184,Le Notre,,47.31025,5.04541,,,0,CTP0081
1082,183,Princes de Conde,,47.31303,5.04423,,,0,CTP0082
1085,181,Bibliotheque,,47.3191,5.04342,,,0,CTP0085
1089,329,Zipfel,,47.302,5.06632,,,0,CTP0089
1090,1196,Bouhey,,47.2913,5.05862,,,0,CTP0090
1091,327,Le Jolivet,,47.30636,5.05923,,,0,CTP0091
1093,325,Guibaudet,,47.31058,5.05353,,,0,CTP0093
1094,324,Prison,,47.31235,5.05134,,,0,CTP0094
1095,323,De Musset,,47.31421,5.04832,,,0,CTP0095
1099,453,Ravel,,47.30091,5.04044,,,0,CTP0099
1100,452,Chopin,,47.30249,5.04233,,,0,CTP0100
1101,451,Attiret,,47.30397,5.04080,,,0,CTP0101
1102,681,Stearinerie,,47.30412,5.03459,,,0,CTP0102
1105,447,ESPE,,47.31076,5.03881,,,0,CTP0105
1106,446,Bordot,,47.31298,5.04014,,,0,CTP0106
1107,1217,Dumont,,47.3141,5.04122,,,0,CTP0107
1111,363,Montmuzard,,47.32601,5.06604,,,0,CTP0111
1113,831,Parc des sports,,47.32225,5.06578,,,0,CTP0113
1114,361,Doumer,,47.32184,5.06139,,,0,CTP0114
1115,360,Strasbourg,,47.32145,5.05835,,,0,CTP0115
1116,359,SNCF Porte Neuve,,47.32155,5.05526,,,0,CTP0116
1118,1373,Dupuis,,47.32633,5.03820,,,0,CTP0118
1123,12,Theatre,,47.32216,5.04359,,,0,CTP0123
1126,77,Spuller,,47.32603,5.03040,,,0,CTP0126
1127,76,Genois,,47.32933,5.02497,,,0,CTP0127
1128,75,Ziem,,47.33113,5.02184,,,0,CTP0128
1131,725,Petit Bernard,,47.30706,5.03393,,,0,CTP0131
1132,532,Place des Savoirs,,47.3312,5.06773,,,0,CTP0132
1133,533,Seguin,,47.33307,5.06820,,,0,CTP0133
1134,531,Sainte Bernadette,,47.33129,5.06550,,,0,CTP0134
1135,905,"D'Alembert",,47.33133,5.06373,,,0,CTP0135
1136,1229,De Brosses,,47.32425,5.03689,,,0,CTP0136
1137,208,Poincare,,47.32875,5.06013,,,0,CTP1137
CTP1137,208,Poincare,,47.32875,5.06013,,,1,
1138,528,Palais des Congres,,47.32857,5.05412,,,0,CTP0138
1143,267,Corvee,,47.30823,5.02367,,,0,CTP0143
1144,266,Peyvets,,47.3064,5.02253,,,0,CTP0144
1146,264,Billetottes,,47.30206,5.01872,,,0,CTP0146
1147,263,Mairey,,47.30029,5.01664,,,0,CTP0147
1148,262,Gambetta,,47.29807,5.01387,,,0,CTP0148
1149,261,Bazin,,47.29567,5.01171,,,0,CTP0149
1150,260,Thibaut,,47.29286,5.00958,,,0,CTP1150
CTP1150,260,Thibaut,,47.29286,5.00958,,,1,
1152,258,Foussets,,47.28876,5.00622,,,0,CTP0152
1153,257,Curie,,47.28628,5.00381,,,0,CTP0153
1154,256,Bicentenaire,,47.28531,5.00572,,,0,CTP0154
1155,255,Langevin,,47.28435,5.00961,,,0,CTP0155
1156,281,Dom Plancher,,47.34282,5.04501,,,0,CTP0156
1158,279,College Roupnel,,47.33567,5.04428,,,0,CTP0158
1159,278,Drapeau,,47.33307,5.04409,,,0,CTP0159
1160,277,Lavier,,47.33234,5.04399,,,0,CTP0160
1161,1357,Richet,,47.30639,5.01560,,,0,CTP0161
1163,719,Pommard,,47.30791,5.01859,,,0,CTP0163
1164,718,Fyot,,47.30927,5.01613,,,0,CTP0164
1165,664,Roussottes,,47.31228,5.00692,,,0,CTP0165
1169,519,Croix des Valendons,,47.30166,5.00853,,,0,CTP0169
1170,518,Renan,,47.29922,5.00600,,,0,CTP0170
1171,517,College Chapitre,,47.29685,5.00480,,,0,CTP0171
1173,1439,Bouteiller,,47.32655,5.06879,,,0,CTP0173
1174,1071,Champ Prieur,,47.33071,5.09269,,,0,CTP0174
1175,1073,Bons Compagnons,,47.33157,5.09150,,,0,CTP0175
1176,379,"Paquier d'Aupre",,47.33181,5.08716,,,0,CTP0176
1177,372,Jacquat,,47.33144,5.08512,,,0,CTP0177
1178,483,Gauthier,,47.33102,5.08259,,,0,CTP0178
1179,482,Longenes,,47.33025,5.07775,,,0,CTP0179
1180,366,Castelnau,,47.32976,5.07456,,,0,CTP0180
1182,178,SNCF Brifaut,,47.3244,5.02766,,,0,CTP0182
1183,177,Bagatelle,,47.32355,5.02296,,,0,CTP0183
1184,176,Perrieres,,47.32296,5.01932,,,0,CTP1184
CTP1184,176,Perrieres,,47.32296,5.01932,,,1,
1186,174,Marmuzots,,47.32817,5.01257,,,0,CTP0186
1187,205,Fontaine aux Fees,,47.32949,5.01061,,,0,CTP0187
1188,172,Talant Liberation,,47.3323,5.01140,,,0,CTP1188
CTP1188,172,Talant Liberation,,47.3323,5.01140,,,1,
1189,781,Cottages,,47.33315,5.00885,,,0,CTP0189
1190,170,Cote aux Moines,,47.33772,5.00913,,,0,CTP0190
1191,169,Place des Arbaletriers,,47.33813,5.00363,,,0,CTP0191
1192,168,Logis de Bourgogne,,47.33872,4.99854,,,0,CTP0192
1193,560,"d'Arbaumont",,47.3134,5.05486,,,0,CTP0193
1194,561,Petites Roches,,47.31323,5.05800,,,0,CTP0194
1197,275,Mazen Sully,,47.31536,5.07510,,,0,CTP0197
1198,342,Marechal,,47.3161,5.07203,,,0,CTP1198
CTP1198,342,Marechal,,47.3161,5.07203,,,1,
1199,835,CREPS,,47.31164,5.08075,,,0,CTP0199
1200,1070,Gendarmerie,,47.31721,5.12130,,,0,CTP0200
1201,1069,Croix St Martin,,47.31523,5.12149,,,0,CTP0201
1202,98,Quetignerot,,47.30956,5.10796,,,0,CTP0202
1203,99,Atria,,47.30832,5.11024,,,0,CTP0203
1204,198,Quetigny Centre,,47.31378,5.11016,,,0,CTP0204
1205,590,Village Auto,,47.3523,5.06765,,,0,CTP0205
1206,1068,Quetigny Mairie,,47.31231,5.11607,,,0,CTP0206
1208,1366,IUT,,47.30995,5.06883,,,0,CTP0208
1211,421,Piscine Olympique,,47.31441,5.08298,,,0,CTP1211
CTP1211,421,Piscine Olympique,,47.31441,5.08298,,,1,
1212,1365,21e Siecle,,47.30921,5.07153,,,0,CTP0212
1213,89,Boulanger,,47.31711,5.06393,,,0,CTP0213
1214,88,Defense,,47.31724,5.06098,,,0,CTP0214
1215,87,"Creux d'Enfer",,47.3175,5.05842,,,0,CTP0215
1217,1612,Voltaire,,47.31902,5.05186,,,0,CTP0217
1218,84,Lycee H.Fontaine,,47.31872,5.05029,,,0,CTP0218
1219,388,Franklin,,47.31799,5.04003,,,0,CTP0222
1222,1308,Champs Viaux,,47.35077,4.99815,,,0,CTP1222
CTP1222,1308,Champs Viaux,,47.35077,4.99815,,,1,
1223,207,Lavoisier,,47.28376,5.04396,,,0,CTP0223
1227,315,Palissy,,47.28669,5.01735,,,0,CTP0227
1232,473,Les Jardins,,47.33526,5.07582,,,0,CTP0232
1233,474,Les Buttes,,47.33759,5.08052,,,0,CTP0233
1234,382,La Planchotte,,47.33644,5.08312,,,0,CTP0234
1237,1307,Meix Pillon,,47.35234,4.99430,,,0,CTP1237
CTP1237,1307,Meix Pillon,,47.35234,4.99430,,,1,
1238,355,SNCF Vincenot,,47.32231,5.02703,,,0,CTP0238
1239,353,Albert 1er,,47.32239,5.01933,,,0,CTP0239
1240,352,CHS La Chartreuse,,47.32221,5.01123,,,0,CTP0240
1241,351,Gorgets,,47.32031,5.00869,,,0,CTP0241
1242,350,Avenue du Lac,,47.31904,5.00643,,,0,CTP1242
CTP1242,350,Avenue du Lac,,47.31904,5.00643,,,1,
1244,348,Bachelard,,47.31871,5.00135,,,0,CTP0244
1245,347,Champs Perdrix,,47.31983,5.00390,,,0,CTP0245
1246,346,Piscine,,47.32188,5.00211,,,0,CTP0246
1247,345,Belin,,47.32115,4.99966,,,0,CTP1247
CTP1247,345,Belin,,47.32115,4.99966,,,1,
1251,339,Jura,,47.34231,5.02528,,,0,CTP0251
1252,337,Ranelagh,,47.34168,5.02938,,,0,CTP0252
1253,440,Camelias,,47.34131,5.03125,,,0,CTP0253
1254,441,Morvan,,47.34073,5.03395,,,0,CTP0254
1257,445,Claude Hoin,,47.33347,5.03405,,,0,CTP0257
1259,753,Beaune,,47.3314,5.03845,,,0,CTP0259
1262,312,Mare,,47.3436,5.01585,,,0,CTP0262
1263,313,Les Creots,,47.34179,5.01467,,,0,CTP1263
CTP1263,313,Les Creots,,47.34179,5.01467,,,1,
1264,791,Combottes,,47.33972,5.01715,,,0,CTP0264
1266,316,Amandiers,,47.33763,5.02314,,,0,CTP0266
1267,1233,Peguy,,47.33814,5.01664,,,0,CTP0267
1269,319,Bizet,,47.33211,5.02831,,,0,CTP0269
1270,320,Rouen,,47.33003,5.03328,,,0,CTP0270
1271,779,Dubois,,47.3252,5.03239,,,0,CTP0271
1273,71,Chaumiere,,47.33651,5.01273,,,0,CTP0273
1274,70,Herriot,,47.33771,5.01060,,,0,CTP0274
1275,68,Moulissards,,47.34281,4.99966,,,0,CTP0275
1276,67,Nachey,,47.34166,4.99745,,,0,CTP0276
1278,65,Picasso,,47.3378,4.99500,,,0,CTP0278
1279,64,Mail,,47.33708,4.99309,,,0,CTP0279
1280,63,Retisseys,,47.33851,4.99123,,,0,CTP0280
1286,161,Eiffel,,47.2809,5.05055,,,0,CTP0286
1287,318,Route de Beaune,,47.2875,5.01432,,,0,CTP0287
1288,165,CHENOVE Vieux Bourg,,47.29154,5.00356,,,0,CTP1288
CTP1288,165,CHENOVE Vieux Bourg,,47.29154,5.00356,,,1,
1290,982,Drouot,,47.31065,5.01036,,,0,CTP0290
1291,219,1er Mai,,47.31465,5.02876,,,0,CTP0291
1292,217,Jaures,,47.31047,5.02643,,,0,CTP0292
1293,216,Bourroches,,47.30538,5.02355,,,0,CTP0293
1294,523,Carraz,,47.30021,5.02067,,,0,CTP0294
1295,591,Pont de Churchil,,47.3512,5.06274,,,0,CTP0295
1296,588,Bailly,,47.34877,5.07441,,,0,CTP1296
CTP1296,588,Bailly,,47.34877,5.07441,,,1,
1298,592,Perrenet,,47.34877,5.06270,,,0,CTP0298
1299,586,Malines,,47.34539,5.07511,,,0,CTP0299
1300,593,Quignard,,47.34973,5.06893,,,0,CTP0300
1301,585,La Breuchilliere,,47.34493,5.07331,,,0,CTP0301
1302,594,Cluj,,47.34589,5.06652,,,0,CTP0302
1303,584,La Brot,,47.34312,5.07393,,,0,CTP0303
1304,595,Chaput,,47.3444,5.06564,,,0,CTP0304
1305,550,Bastogne,,47.34146,5.07440,,,0,CTP0305
1310,1074,Colchide,,47.35407,5.05790,,,0,CTP0310
1311,993,La Flamme,,47.34576,4.96439,,,0,CTP0311
1312,994,Courtois,,47.34403,4.96522,,,0,CTP0312
1313,548,Mayence,,47.33894,5.06402,,,0,CTP0313
1314,996,Victor Hugo,,47.34071,4.97037,,,0,CTP0314
1315,997,Plombieres Mairie,,47.33987,4.97305,,,0,CTP0315
1316,998,Vallon,,47.33884,4.97584,,,0,CTP0316
1317,999,Combe aux Fees,,47.33756,4.97914,,,0,CTP0317
1319,1002,Seize Vannes,,47.33192,4.99056,,,0,CTP0319
1320,1003,Parc a Bateaux,,47.32978,4.99910,,,0,CTP0320
1322,1005,CHS La Chartreuse,,47.32257,5.01085,,,0,CTP0240
1324,1290,Beauregard,,47.28131,5.05394,,,0,CTP0324
1327,748,Transvaal,,47.31549,5.03789,,,0,CTP0327
1329,755,Mazieres,,47.33636,5.04001,,,0,CTP0329
1330,754,Houblonniere,,47.33322,5.03907,,,0,CTP0330
1331,981,Rossignol Eiffel,,47.31244,5.01013,,,0,CTP0331
1332,686,1er Mai Foyer,,47.31468,5.03178,,,0,CTP0332
1333,873,Alger,,47.31217,5.03292,,,0,CTP0333
1334,749,Petit-Citeaux,,47.3151,5.03389,,,0,CTP0334
1336,871,Tournois,,47.30795,5.04151,,,0,CTP0336
1337,870,Chancenotte,,47.3061,5.04630,,,0,CTP0079
1338,869,College Lentilleres,,47.30524,5.05229,,,0,CTP0338
1339,322,Baudin,,47.31542,5.04571,,,0,CTP1339
CTP1339,322,Baudin,,47.31542,5.04571,,,1,
1340,868,Pejoces,,47.30973,5.05892,,,0,CTP0340
1341,867,Faculte des lettres,,47.31214,5.06181,,,0,CTP0341
1342,1212,"Jeanne d'Arc",,47.31796,5.06535,,,0,CTP0342
1343,903,CHU - Hopitaux,,47.31987,5.06543,,,0,CTP0343
1345,906,Laplace,,47.33278,5.06313,,,0,CTP0345
1348,983,Saint Exupery,,47.33685,5.05536,,,0,CTP0348
1349,985,Junot,,47.33957,5.04626,,,0,CTP0349
1352,200,Pierrat,,47.28211,5.04679,,,0,CTP0352
1353,764,Presles,,47.35607,5.03467,,,0,CTP0353
1355,1431,Guesde,,47.28514,5.06877,,,0,CTP0355
1356,1628,Chenove Centre,,47.29435,5.00591,,,0,CTP0356
1358,458,Rue du Port,,47.28575,5.04150,,,0,CTP0358
1359,457,Romelet,,47.28732,5.03953,,,0,CTP0359
1361,455,Bertin,,47.29303,5.03688,,,0,CTP0361
1373,1330,"L'Ogive",,47.29433,5.12720,,,0,CTP0373
1375,1266,Volnay,,47.31197,5.01453,,,0,CTP0375
1377,987,Terrillon,,47.33651,5.03252,,,0,CTP0377
1378,988,Suisse,,47.33484,5.02411,,,0,CTP0378
1380,1386,Pasteur,,47.29533,5.13331,,,0,CTP0380
1381,1335,Moliere,,47.30213,5.13261,,,0,CTP0381
1382,1067,College Rostand,,47.31748,5.10796,,,0,CTP0382
1386,1344,Pres Potets,,47.35572,5.02679,,,0,CTP0386
1387,117,Cromois,,47.31458,5.11281,,,0,CTP0387
1389,443,St-Martin,,47.33772,5.03515,,,0,CTP0389
1390,69,La Fillotte,,47.34004,5.00559,,,0,CTP0390
1391,760,Le Suzon,,47.34695,5.03526,,,0,CTP0391
1392,436,Les Charmes,,47.34571,5.02431,,,0,CTP0392
1393,1258,Charton,,47.28557,5.01990,,,0,CTP0393
1395,454,La Colombiere,,47.29754,5.03987,,,0,CTP0395
1396,765,Les Plantes,,47.36469,5.02814,,,0,CTP0396
1397,62,Neruda,,47.34056,4.98929,,,0,CTP0397
1402,101,Visitation,,47.30438,5.11966,,,0,CTP0402
1403,328,Stade Poussots,,47.30462,5.06219,,,0,CTP0403
1405,311,Cottin,,47.34652,5.01357,,,0,CTP0405
1408,1001,Cherains,,47.33414,4.98751,,,0,CTP0408
1410,842,Grande Legie,,47.28941,5.10929,,,0,CTP0410
1413,100,Lycee de Serres,,47.30782,5.11648,,,0,CTP0413
1414,102,Bois du Roy,,47.30316,5.12321,,,0,CTP0414
1421,112,Clematites,,47.29935,5.13490,,,0,CTP0421
1422,1058,Capucines,,47.30225,5.14038,,,0,CTP0422
1424,895,Perret,,47.30177,5.14268,,,0,CTP0424
1425,896,Geraniums,,47.29896,5.14364,,,0,CTP0425
1426,897,Artisans,,47.29422,5.14577,,,0,CTP0426
1428,1362,Trois Saffres,,47.3471,5.03038,,,0,CTP0428
1431,838,Bassin,,47.29789,5.10281,,,0,CTP0431
1432,852,Dorain,,47.29293,5.10612,,,0,CTP0432
1433,853,Normand,,47.29158,5.11033,,,0,CTP0433
1434,843,Le Fort,,47.28827,5.10574,,,0,CTP0434
1435,844,Mimosas,,47.29015,5.10272,,,0,CTP0435
1436,1057,Av. de Tavaux,,47.28805,5.13401,,,0,CTP0436
1437,1380,Montots,,47.28163,5.10671,,,0,CTP0437
1438,1056,Excellence 2000,,47.28345,5.13318,,,0,CTP0438
1439,1379,Racine,,47.27805,5.11086,,,0,CTP0439
1440,1378,Corneille,,47.27869,5.11324,,,0,CTP0440
1441,1306,Changey,,47.35464,4.99259,,,0,CTP0441
1444,788,Rue de Dijon,,47.34973,5.00183,,,0,CTP0444
1445,787,Bernard,,47.35085,5.00011,,,0,CTP0445
1455,285,Europe,,47.35333,5.04601,,,0,CTP0455
1456,284,Kellerman,,47.35114,5.04575,,,0,CTP0456
1457,283,Nation,,47.34654,5.04541,,,0,CTP0457
1461,762,Coteaux du Suzon,,47.35029,5.04074,,,0,CTP0461
1462,763,Touzet du Vigier,,47.35266,5.03781,,,0,CTP0462
1466,697,La Vapeur,,47.34607,5.05936,,,0,CTP0466
1469,1137,Bressey ZA,,47.30852,5.17000,,,0,CTP0469
1470,980,Tire Pesseau,,47.31593,5.00536,,,0,CTP0470
1471,121,Allende,,47.32103,5.10581,,,0,CTP0471
1472,120,Prevert,,47.32064,5.10918,,,0,CTP0472
1473,119,Camus,,47.31912,5.10986,,,0,CTP0473
1474,782,Cortots,,47.35376,5.02649,,,0,CTP0474
1475,460,Ratel,,47.34971,5.02838,,,0,CTP0475
1476,459,Belfontaine,,47.35213,5.03028,,,0,CTP0476
1477,1119,Pl. du Puits,,47.36588,4.99511,,,0,CTP1477
CTP1477,1119,Pl. du Puits,,47.36588,4.99511,,,1,
1478,946,Poncelet,,47.34138,5.04198,,,0,CTP0478
1479,1118,Les Collines,,47.36769,4.99101,,,0,CTP0479
1481,589,Ardennes,,47.35072,5.06984,,,0,CTP0481
1482,422,Complexe Funeraire,,47.30511,5.09278,,,0,CTP0482
1483,1309,Alisiers,,47.34695,5.00141,,,0,CTP0483
1486,701,Churchill,,47.35269,5.05305,,,0,CTP0486
1487,700,Granville,,47.35046,5.05214,,,0,CTP0487
1488,699,Proust,,47.34925,5.05494,,,0,CTP1488
CTP1488,699,Proust,,47.34925,5.05494,,,1,
1490,470,Petit Ouges,,47.25431,5.08605,,,0,CTP0490
1491,469,De Gaulle,,47.25753,5.08232,,,0,CTP0491
1492,468,Ouges Mairie,,47.26245,5.07519,,,0,CTP0492
1495,467,Tilleul,,47.26356,5.07051,,,0,CTP0495
1496,1039,Ecluse,,47.27871,5.06249,,,0,CTP0496
1497,1045,Terminal,,47.27789,5.06989,,,0,CTP0497
1499,1146,Colleys,,47.25672,5.04671,,,0,CTP0499
1502,1020,Perrigny Mairie,,47.26616,5.00644,,,0,CTP0502
1503,1021,Tourelle,,47.2672,5.00549,,,0,CTP0503
1504,1022,Terreau du Moulin,,47.27004,5.00795,,,0,CTP0504
1505,1023,Lapostolet,,47.27335,5.00936,,,0,CTP0505
1507,1024,Vignery,,47.2728,5.00625,,,0,CTP0507
1508,1026,CAT-ESAT,,47.27453,5.00646,,,0,CTP1508
CTP1508,1026,CAT-ESAT,,47.27453,5.00646,,,1,
1509,1027,Cap Sud,,47.2784,5.00911,,,0,CTP0509
1510,959,Dardelain,,47.27858,5.00976,,,0,CTP0510
1513,1252,Colombier,,47.26977,4.99085,,,0,CTP0513
1514,1253,Mechalot,,47.27245,4.99191,,,0,CTP0514
1515,1254,St-Vincent,,47.27527,4.99455,,,0,CTP0515
1519,941,Limburgerhof,,47.29183,5.01544,,,0,CTP0519
1520,942,Ferry,,47.29619,5.01830,,,0,CTP0520
1522,939,College Ayme,,47.28049,5.00327,,,0,CTP0522
1523,938,Rameau,,47.27848,5.00004,,,0,CTP0523
1530,1275,Acti-sud,,47.27851,5.01646,,,0,CTP1530
CTP1530,1275,Acti-sud,,47.27851,5.01646,,,1,
1531,374,Opaline,,47.33323,5.09060,,,0,CTP0531
1532,375,Marie de Bourgogne,,47.33405,5.08917,,,0,CTP0532
1533,598,Flandres,,47.35575,5.06480,,,0,CTP0533
1534,286,Nations Unies,,47.35475,5.04724,,,0,CTP0534
1535,7,Tremouille,,47.32569,5.04317,,,0,CTP1535
CTP1535,7,Tremouille,,47.32569,5.04317,,,1,
1536,8,Prefecture,,47.32384,5.04190,,,0,CTP0536
1537,9,Notre Dame,,47.32266,5.04109,,,0,CTP0537
1552,1179,Barret,,47.36433,5.04949,,,0,CTP0552
1553,1180,Giroud,,47.36537,5.04961,,,0,CTP0553
1554,1181,Valmy,,47.36571,5.04703,,,0,CTP0554
1555,1209,Brossolette,,47.34204,4.99081,,,0,CTP0555
1556,1211,Schmitt,,47.32406,5.07350,,,0,CTP1556
CTP1556,1211,Schmitt,,47.32406,5.07350,,,1,
1557,1213,Milsand,,47.30873,5.03891,,,0,CTP0557
1558,1228,Suquet,,47.31606,5.03367,,,0,CTP0558
1559,1416,Yourcenar,,47.35153,5.05699,,,0,CTP0559
1563,166,Sembat,,47.29713,5.02262,,,0,CTP0563
1564,1264,St-Jacques,,47.30624,5.02132,,,0,CTP0564
1565,1281,Claudel,,47.30652,4.99753,,,0,CTP0565
1567,1289,Verriers,,47.30017,5.03663,,,0,CTP0567
1568,1293,Ateliers APF,,47.28938,5.04996,,,0,CTP0568
1570,1392,Chambertin,,47.36714,4.99904,,,0,CTP0570
1571,1394,La Paisse,,47.36866,4.98797,,,0,CTP0571
1572,1321,Champs Creux,,47.30045,5.12320,,,0,CTP0572
1573,1399,York,,47.33131,5.05923,,,0,CTP0573
1574,1388,Pompon,,47.33338,5.02364,,,0,CTP0574
1575,1638,Quetigny C.Cial,,47.31153,5.10423,,,0,CTP1575
CTP1575,1638,Quetigny C.Cial,,47.31153,5.10423,,,1,
1576,1649,La Mirandiere,,47.30823,5.10650,,,0,CTP0576
1579,1655,Tirbaude,,47.32905,5.08904,,,0,CTP0579
1580,1632,Baudelaire,,47.34864,5.04336,,,0,CTP0580
1581,1630,College Malraux,,47.35094,5.03648,,,0,CTP0581
1583,1626,Piece Leger,,47.27804,5.01156,,,0,CTP1583
CTP1583,1626,Piece Leger,,47.27804,5.01156,,,1,
1584,1629,Monge,,47.31781,5.03209,,,0,CTP0584
1585,1636,Vaillant,,47.3301,5.04456,,,0,CTP0585
1588,1647,Champs aux Metiers,,47.30739,5.09893,,,0,CTP0588
1589,1644,Oree du Bois,,47.27629,5.11894,,,0,CTP0589
1590,1645,Neuilly,,47.27978,5.10750,,,0,CTP0590
1591,1653,Balzac,,47.34027,5.04910,,,0,CTP1591
CTP1591,1653,Balzac,,47.34027,5.04910,,,1,
1592,2,Petite Fin,,47.34871,5.03104,,,0,CTP0592
1596,1663,Saint Apollinaire Mairie,,47.33372,5.08555,,,0,CTP1596
CTP1596,1663,Saint Apollinaire Mairie,,47.33372,5.08555,,,1,
1597,1658,Saint Apollinaire Mairie,,47.33372,5.08517,,,0,CTP1596
1598,1664,Marie de Bourgogne,,47.33394,5.08817,,,0,CTP0532
1600,1660,Maternite,,47.32233,5.07247,,,0,CTP1600
CTP1600,1660,Maternite,,47.32233,5.07247,,,1,
1601,5,Rempart,,47.31793,5.04196,,,0,CTP1601
CTP1601,5,Rempart,,47.31793,5.04196,,,1,
1602,6,Beaux Arts,,47.3224,5.04204,,,0,CTP0598
1603,1634,Canzio,,47.34263,5.00068,,,0,CTP1603
CTP1603,1634,Canzio,,47.34263,5.00068,,,1,
1604,221,Auditorium,,47.32875,5.05207,,,0,CTP1604
CTP1604,221,Auditorium,,47.32875,5.05207,,,1,
1605,222,Auditorium,,47.3287,5.05206,,,0,CTP1604
1606,52,Theatre,,47.32362,5.04404,,,0,CTP0123
1607,51,Beaux Arts,,47.32232,5.04210,,,0,CTP0598
1612,130,A. Patte,,47.2783,4.91868,,,0,CTP0612
1613,144,Les Pins,,47.29463,4.93713,,,0,CTP0613
1614,156,Corcelles les Monts,,47.29534,4.94023,,,0,CTP0614
1615,159,Combe a la Serpent,,47.30116,4.96075,,,0,CTP0615
1621,269,Erasme - CHU,,47.31663,5.06874,,,0,CTP0621
1622,394,Saint Laurent,,47.35728,4.99079,,,0,CTP1622
CTP1622,394,Saint Laurent,,47.35728,4.99079,,,1,
1APO,1656,Abbe Pierre,,47.33033,5.08908,,,0,CTP1APO
CTP1APO,1656,Abbe Pierre,,47.33033,5.08908,,,1,
1ARA,72,Arandes,,47.33472,5.01481,,,0,CTP1ARA
CTP1ARA,72,Arandes,,47.33472,5.01481,,,1,
1BAR,752,Barbe,,47.32901,5.03964,,,0,CTP1BAR
CTP1BAR,752,Barbe,,47.32901,5.03964,,,1,
1BIL,541,Billardon,,47.32838,5.06971,,,0,CTP1BIL
CTP1BIL,541,Billardon,,47.32838,5.06971,,,1,
1BILL,1115,Billardon,,47.32846,5.07064,,,0,CTP1BIL
1BOURF,1358,Bourroches Eiffel,,47.31288,5.01414,,,0,CTP0037
1BRET,381,Plaisanciers,,47.23975,5.11423,,,0,CTP1BRET
CTP1BRET,381,Plaisanciers,,47.23975,5.11423,,,1,
1CAL,626,Calmette,,47.30956,5.00185,,,0,CTP1CAL
CTP1CAL,626,Calmette,,47.30956,5.00185,,,1,
1CARM,91,Carmelites,,47.28565,5.07427,,,0,CTP1CARM
CTP1CARM,91,Carmelites,,47.28565,5.07427,,,1,
1CAST,685,Lycee le Castel,,47.31293,5.03700,,,0,CTP1CAST
CTP1CAST,685,Lycee le Castel,,47.31293,5.03700,,,1,
1CDG,761,Lycee De Gaulle,,47.34737,5.04092,,,0,CTP1CDG
CTP1CDG,761,Lycee De Gaulle,,47.34737,5.04092,,,1,
1CDP,872,College Le Parc,,47.31094,5.03300,,,0,CTP1CDP
CTP1CDP,872,College Le Parc,,47.31094,5.03300,,,1,
1CEL,321,Cellerier,,47.32762,5.03330,,,0,CTP1CEL
CTP1CEL,321,Cellerier,,47.32762,5.03330,,,1,
1CFA,456,CFA La Noue,,47.29166,5.03592,,,0,CTP1CFA
CTP1CFA,456,CFA La Noue,,47.29166,5.03592,,,1,
1CFLY,1255,Cours Fleury,,47.32744,5.04235,,,0,CTP1CFLY
CTP1CFLY,1255,Cours Fleury,,47.32744,5.04235,,,1,
1CGC,334,Grands Crus,,47.28464,5.00816,,,0,CTP1CGC
CTP1CGC,334,Grands Crus,,47.28464,5.00816,,,1,
1CHEV,1147,Chevigny Pont Neuf,,47.24299,5.05680,,,0,CTP1CHEV
CTP1CHEV,1147,Chevigny Pont Neuf,,47.24299,5.05680,,,1,
1CHF,937,Champforey,,47.27766,4.99751,,,0,CTP1CHF
CTP1CHF,937,Champforey,,47.27766,4.99751,,,1,
1CHH,952,MARSANNAY,,47.27979,5.00658,,,0,CTP1CHH
CTP1CHH,952,MARSANNAY,,47.27979,5.00658,,,1,
1CHM,113,Chevigny Mairie,,47.3013,5.13477,,,0,CTP1CHM
CTP1CHM,113,Chevigny Mairie,,47.3013,5.13477,,,1,
1CHP,505,Druet,,47.29523,5.00459,,,0,CTP1CHP
CTP1CHP,505,Druet,,47.29523,5.00459,,,1,
1CHT,86,Champmaillot,,47.31835,5.05580,,,0,CTP1CHT
CTP1CHT,86,Champmaillot,,47.31835,5.05580,,,1,
1CIM,332,Cimetiere,,47.30303,5.06492,,,0,CTP1CIM
CTP1CIM,332,Cimetiere,,47.30303,5.06492,,,1,
1CLO,32,Clomiers,,47.3334,5.01669,,,0,CTP1CLO
CTP1CLO,32,Clomiers,,47.3334,5.01669,,,1,
1COR,784,FONTAINE Centre Commercial,,47.35559,5.03036,,,0,CTP1COR
CTP1COR,784,FONTAINE Centre Commercial,,47.35559,5.03036,,,1,
1CPL,534,Lycee Eiffel,,47.33453,5.06635,,,0,CTP1CPL
CTP1CPL,534,Lycee Eiffel,,47.33453,5.06635,,,1,
1DOM,1145,Domois,,47.25966,5.04778,,,0,CTP1DOM
CTP1DOM,1145,Domois,,47.25966,5.04778,,,1,
1DOR,10003,LONGVIC Centre,,47.28799,5.06374,,,0,CTP1DOR
CTP1DOR,10003,LONGVIC Centre,,47.28799,5.06374,,,1,
1ECC,907,Boutaric,,47.33473,5.06155,,,0,CTP1ECC
CTP1ECC,907,Boutaric,,47.33473,5.06155,,,1,
1ECN,549,Epirey Cap Nord (descente),,47.33976,5.06829,,,0,CTP1ECN
CTP1ECN,549,Epirey Cap Nord (descente),,47.33976,5.06829,,,1,
1EDG,688,Marne,,47.33073,5.04883,,,0,CTP1EDG
CTP1EDG,688,Marne,,47.33073,5.04883,,,1,
1FDM,945,Marguerites,,47.33695,5.04118,,,0,CTP1FDM
CTP1FDM,945,Marguerites,,47.33695,5.04118,,,1,
1FDS,866,Facultes des Sciences,,47.31504,5.06406,,,0,CTP1FDS
CTP1FDS,866,Facultes des Sciences,,47.31504,5.06406,,,1,
1FEL,330,Felizots,,47.34281,5.02379,,,0,CTP1FEL
CTP1FEL,330,Felizots,,47.34281,5.02379,,,1,
1FMI,341,Fac Mirande,,47.31709,5.06613,,,0,CTP1FMI
CTP1FMI,341,Fac Mirande,,47.31709,5.06613,,,1,
1FO,963,"Fontaine d'Ouche",,47.32167,4.99798,,,0,CTP1FO
CTP1FO,963,"Fontaine d'Ouche",,47.32167,4.99798,,,1,
1GAP,280,Junot,,47.33908,5.04470,,,0,CTP0349
1GLA,442,Glaieuls,,47.33981,5.03575,,,0,CTP1GLA
CTP1GLA,442,Glaieuls,,47.33981,5.03575,,,1,
1GUI,435,Monnet,,47.3469,5.02630,,,0,CTP1GUI
CTP1GUI,435,Monnet,,47.3469,5.02630,,,1,
1GUT,1648,Gutenberg,,47.30779,5.10249,,,0,CTP1GUT
CTP1GUT,1648,Gutenberg,,47.30779,5.10249,,,1,
1HDM,836,De Coubertin,,47.3093,5.08308,,,0,CTP1HDM
CTP1HDM,836,De Coubertin,,47.3093,5.08308,,,1,
1HFR,634,Hopital,,47.31831,5.02984,,,0,CTP1HFR
CTP1HFR,634,Hopital,,47.31831,5.02984,,,1,
1HOU,317,Houdart,,47.33601,5.02511,,,0,CTP1HOU
CTP1HOU,317,Houdart,,47.33601,5.02511,,,1,
1JRO,118,Ronde,,47.31729,5.10913,,,0,CTP1JRO
CTP1JRO,118,Ronde,,47.31729,5.10913,,,1,
1KIR,349,Chanoine Kir,,47.31742,5.00296,,,0,CTP1KIR
CTP1KIR,349,Chanoine Kir,,47.31742,5.00296,,,1,
1LAB,197,Cap Vert,,47.31342,5.09441,,,0,CTP1LAB
CTP1LAB,197,Cap Vert,,47.31342,5.09441,,,1,
1LAC,1004,Le Lac,,47.32395,5.00859,,,0,CTP1LAC
CTP1LAC,1004,Le Lac,,47.32395,5.00859,,,1,
1LB,196,Bief du Moulin,,47.28425,5.06086,,,0,CTP1LB
CTP1LB,196,Bief du Moulin,,47.28425,5.06086,,,1,
1LYC,995,Lycee Kir,,47.34141,4.96722,,,0,CTP1LYC
CTP1LYC,995,Lycee Kir,,47.34141,4.96722,,,1,
1LZI,1314,Longvic ZI,,47.2754,5.06212,,,0,CTP1LZI
CTP1LZI,1314,Longvic ZI,,47.2754,5.06212,,,1,
1MAN,562,Mansart,,47.31282,5.06108,,,0,CTP1MAN
CTP1MAN,562,Mansart,,47.31282,5.06108,,,1,
1MAR,1127,Marronniers,,47.28219,5.10650,,,0,CTP1MAR
CTP1MAR,1127,Marronniers,,47.28219,5.10650,,,1,
1MAT,832,Urgences C.H.U.,,47.3223,5.06930,,,0,CTP1MAT
CTP1MAT,832,Urgences C.H.U.,,47.3223,5.06930,,,1,
1MB,94,Mont Blanc,,47.29905,5.07738,,,0,CTP1MB
CTP1MB,94,Mont Blanc,,47.29905,5.07738,,,1,
1MDR,171,Fassoles,,47.33499,5.00937,,,0,CTP1MDR
CTP1MDR,171,Fassoles,,47.33499,5.00937,,,1,
1MEG,354,Nodot,,47.32254,5.02477,,,0,CTP1MEG
CTP1MEG,354,Nodot,,47.32254,5.02477,,,1,
1MEL,1331,Chevigny,,47.29747,5.12559,,,0,CTP1MEL
CTP1MEL,1331,Chevigny,,47.29747,5.12559,,,1,
1MES,74,St-Mesmin,,47.33261,5.01800,,,0,CTP1MES
CTP1MES,74,St-Mesmin,,47.33261,5.01800,,,1,
1ML,1310,Maladiere,,47.34465,5.00089,,,0,CTP1ML
CTP1ML,1310,Maladiere,,47.34465,5.00089,,,1,
1MOI,1662,Moirey,,47.33366,5.08364,,,0,CTP1MOI
CTP1MOI,1662,Moirey,,47.33366,5.08364,,,1,
1MON,989,Loti,,47.33407,5.01720,,,0,CTP1MON
CTP1MON,989,Loti,,47.33407,5.01720,,,1,
1MSD,265,Morey St-Denis,,47.30428,5.02081,,,0,CTP1MSD
CTP1MSD,265,Morey St-Denis,,47.30428,5.02081,,,1,
1OUGES,1051,Pautet,,47.25341,5.08568,,,0,CTP1OUGES
CTP1OUGES,1051,Pautet,,47.25341,5.08568,,,1,
1PAM,845,Pre aux Moines,,47.29024,5.09998,,,0,CTP1PAM
CTP1PAM,845,Pre aux Moines,,47.29024,5.09998,,,1,
1PARC,187,Parc,,47.30227,5.04878,,,0,CTP1PARC
CTP1PARC,187,Parc,,47.30227,5.04878,,,1,
1PCH,717,Charet,,47.30856,5.01199,,,0,CTP1PCH
CTP1PCH,717,Charet,,47.30856,5.01199,,,1,
1POI,530,Gresilles,,47.32928,5.06509,,,0,CTP1POI
CTP1POI,530,Gresilles,,47.32928,5.06509,,,1,
1POU,282,Pouilly,,47.34624,5.04535,,,0,CTP1POU
CTP1POU,282,Pouilly,,47.34624,5.04535,,,1,
1RETZ,450,Morel Retz,,47.30519,5.03999,,,0,CTP1RETZ
CTP1RETZ,450,Morel Retz,,47.30519,5.03999,,,1,
1ROO,698,Roosevelt,,47.34796,5.05867,,,0,CTP1ROO
CTP1ROO,698,Roosevelt,,47.34796,5.05867,,,1,
1ROS,628,Rossignol Eiffel,,47.31275,5.01037,,,0,CTP0331
1SAL,326,Salengro,,47.30763,5.05615,,,0,CTP1SAL
CTP1SAL,326,Salengro,,47.30763,5.05615,,,1,
1SMO,851,Sennecey Mairie,,47.29156,5.10216,,,0,CTP1SMO
CTP1SMO,851,Sennecey Mairie,,47.29156,5.10216,,,1,
1SOL,696,Cite du Soleil,,47.34289,5.05835,,,0,CTP1SOL
CTP1SOL,696,Cite du Soleil,,47.34289,5.05835,,,1,
1STC,632,Sainte-Chantal,,47.31555,5.02409,,,0,CTP1STC
CTP1STC,632,Sainte-Chantal,,47.31555,5.02409,,,1,
1STF,175,St-Francois,,47.32521,5.01485,,,0,CTP1STF
CTP1STF,175,St-Francois,,47.32521,5.01485,,,1,
1STL,314,St-Luc,,47.3409,5.01761,,,0,CTP1STL
CTP1STL,314,St-Luc,,47.3409,5.01761,,,1,
1TCC,66,Jouvet,,47.33899,4.99707,,,0,CTP1TCC
CTP1TCC,66,Jouvet,,47.33899,4.99707,,,1,
1TER,713,CHENOVE Centre Commercial,,47.28325,5.02035,,,0,CTP1TER
CTP1TER,713,CHENOVE Centre Commercial,,47.28325,5.02035,,,1,
1THP,180,Theatre,,47.32079,5.04307,,,0,CTP0123
1TOI,1078,"Toison d'Or",,47.3546,5.05171,,,0,CTP1TOI
CTP1TOI,1078,"Toison d'Or",,47.3546,5.05171,,,1,
1VAI,276,Vaillant,,47.32968,5.04324,,,0,CTP0585
1VIG,472,Vignes aux Chiens,,47.3333,5.07560,,,0,CTP1VIG
CTP1VIG,472,Vignes aux Chiens,,47.3333,5.07560,,,1,
1VXB,1000,Vaux Bruns,,47.33617,4.98255,,,0,CTP1VXB
CTP1VXB,1000,Vaux Bruns,,47.33617,4.98255,,,1,
1WILF,747,Wilson Sisley,,47.31667,5.04273,,,0,CTP1WILF
CTP1WILF,747,Wilson Sisley,,47.31667,5.04273,,,1,
1ZSA,587,Yser,,47.34726,5.07834,,,0,CTP1ZSA
CTP1ZSA,587,Yser,,47.34726,5.07834,,,1,
2007,1413,Alsace,,47.33516,5.05460,,,0,CTP0007
2037,1241,Bourroches Eiffel,,47.3143,5.01410,,,0,CTP0037
2039,1238,Bel Air,,47.31327,5.00320,,,0,CTP2039
CTP2039,1238,Bel Air,,47.31327,5.00320,,,1,
203F,268,3 Forgerons,,47.31026,5.02565,,,0,CTP203F
CTP203F,268,3 Forgerons,,47.31026,5.02565,,,1,
2041,606,"Patte d'Oie",,47.3112,5.00429,,,0,CTP0041
2062,1239,Saulx Tavannes,,47.31698,4.98912,,,0,CTP0062
2066,1296,Duhamel,,47.28398,5.05661,,,0,CTP1066
2070,1043,Prevots,,47.287,5.06401,,,0,CTP1070
2094,1097,Prison,,47.31309,5.05144,,,0,CTP0094
2096,1197,Palais des Ducs,,47.32123,5.04188,,,0,CTP2096
CTP2096,1197,Palais des Ducs,,47.32123,5.04188,,,1,
2110,1210,Chevre Morte,,47.33212,5.01472,,,0,CTP2110
CTP2110,1210,Chevre Morte,,47.33212,5.01472,,,1,
2120,1613,Lycee Carnot,,47.32366,5.04952,,,0,CTP2120
CTP2120,1613,Lycee Carnot,,47.32366,5.04952,,,1,
2137,213,Poincare,,47.32882,5.05849,,,0,CTP1137
2150,1624,Thibaut,,47.29369,5.00877,,,0,CTP1150
2155,953,Langevin,,47.28475,5.01072,,,0,CTP0155
2164,807,Fyot,,47.3101,5.01604,,,0,CTP0164
2179,367,Longenes,,47.33023,5.07756,,,0,CTP0179
2188,1243,Leclerc,,47.33162,5.01228,,,0,CTP2188
CTP2188,1243,Leclerc,,47.33162,5.01228,,,1,
2194,1226,Champeaux,,47.3014,5.06360,,,0,CTP2194
CTP2194,1226,Champeaux,,47.3014,5.06360,,,1,
2207,1064,Chateau,,47.31434,5.10581,,,0,CTP2207
CTP2207,1064,Chateau,,47.31434,5.10581,,,1,
2218,93,Lycee H.Fontaine,,47.31891,5.05142,,,0,CTP0218
2230,10001,La Gentiane,,47.27864,5.11543,,,0,CTP0230
2234,1661,La Planchotte,,47.33654,5.08376,,,0,CTP0234
2241,1237,Gorgets,,47.32018,5.00954,,,0,CTP0241
2265,1346,Glycines,,47.33955,5.02166,,,0,CTP2265
CTP2265,1346,Glycines,,47.33955,5.02166,,,1,
2269,401,Bizet,,47.33191,5.02705,,,0,CTP0269
3269,410,Bizet,,47.33201,5.02701,,,0,CTP0269
2270,808,Rouen,,47.33074,5.03183,,,0,CTP0270
2271,785,Dubois,,47.32517,5.03251,,,0,CTP0271
2275,1170,Canzio,,47.34289,5.00055,,,0,CTP1603
2294,215,Carraz,,47.30031,5.02102,,,0,CTP0294
2325,1285,Portefeuilles,,47.34442,5.03648,,,0,CTP2325
CTP2325,1285,Portefeuilles,,47.34442,5.03648,,,1,
2351,1326,Menuisiers,,47.29095,5.14938,,,0,CTP2351
CTP2351,1326,Menuisiers,,47.29095,5.14938,,,1,
2371,1368,AgroSup,,47.31112,5.06605,,,0,CTP2371
CTP2371,1368,AgroSup,,47.31112,5.06605,,,1,
2374,1435,Gare SNCF,,47.32256,5.03174,,,0,CTP2374
CTP2374,1435,Gare SNCF,,47.32256,5.03174,,,1,
2377,1347,Terrillon,,47.33558,5.03155,,,0,CTP0377
2382,105,College Rostand,,47.31684,5.10709,,,0,CTP0382
2391,1404,Le Suzon,,47.34723,5.03415,,,0,CTP0391
2413,80,Lycee de Serres,,47.30911,5.11572,,,0,CTP0413
2429,1324,Kennedy,,47.29296,5.13024,,,0,CTP2429
CTP2429,1324,Kennedy,,47.29296,5.13024,,,1,
2430,1325,J.Moulin,,47.29252,5.13365,,,0,CTP2430
CTP2430,1325,J.Moulin,,47.29252,5.13365,,,1,
2449,1395,Hauteville Mairie,,47.36435,4.99336,,,0,CTP0449
2477,1393,Pl. du Puits,,47.3659,4.99507,,,0,CTP1477
2481,1101,Ardennes,,47.35242,5.06731,,,0,CTP0481
2482,837,Complexe Funeraire,,47.30439,5.09221,,,0,CTP0482
2486,1100,W.Churchill,,47.35339,5.05348,,,0,CTP2486
CTP2486,1100,W.Churchill,,47.35339,5.05348,,,1,
2530,1257,Acti-sud,,47.27911,5.01679,,,0,CTP1530
2591,114,Seurre,,47.29205,5.13967,,,0,CTP0591
2622,395,Saint Laurent,,47.35728,4.99060,,,0,CTP1622
2ABB,1350,Abbe Chanlon,,47.30492,5.01261,,,0,CTP2ABB
CTP2ABB,1350,Abbe Chanlon,,47.30492,5.01261,,,1,
2ARA,1244,Arandes,,47.335,5.01531,,,0,CTP1ARA
2BIL,365,Billardon,,47.32881,5.06894,,,0,CTP1BIL
2CHH,955,MARSANNAY,,47.28031,5.00663,,,0,CTP1CHH
2CHM,1384,Chevigny Mairie,,47.30139,5.13520,,,0,CTP1CHM
2COR,167,FONTAINE Centre Commercial,,47.35569,5.03039,,,0,CTP1COR
2FO,95,College Rameau,,47.32193,4.99583,,,0,CTP2FO
CTP2FO,95,College Rameau,,47.32193,4.99583,,,1,
2FTN,173,FONTAINE Village,,47.34814,5.01091,,,0,CTP2FTN
CTP2FTN,173,FONTAINE Village,,47.34814,5.01091,,,1,
2GAL,978,Allobroges,,47.3394,5.03923,,,0,CTP2GAL
CTP2GAL,978,Allobroges,,47.3394,5.03923,,,1,
2HOP,270,Monge,,47.31747,5.03164,,,0,CTP0584
2JMB,1172,Lycee Boivin,,47.30213,5.12784,,,0,CTP2JMB
CTP2JMB,1172,Lycee Boivin,,47.30213,5.12784,,,1,
2LDV,1351,Leonard De Vinci,,47.30273,5.01036,,,0,CTP2LDV
CTP2LDV,1351,Leonard De Vinci,,47.30273,5.01036,,,1,
2MOI,1659,Moirey,,47.3344,5.08324,,,0,CTP1MOI
2MON,1235,Loti,,47.33449,5.01649,,,0,CTP1MON
2OCT,1219,30-oct,,47.32103,5.05211,,,0,CTP2OCT
CTP2OCT,1219,30-oct,,47.32103,5.05211,,,1,
2POI,210,Gresilles,,47.32881,5.06459,,,0,CTP1POI
2PTH,723,Theuriet,,47.33813,5.05054,,,0,CTP2PTH
CTP2PTH,723,Theuriet,,47.33813,5.05054,,,1,
2RETZ,855,Morel Retz,,47.30561,5.03942,,,0,CTP1RETZ
2SAL,769,Salengro,,47.30858,5.05590,,,0,CTP1SAL
3039,1240,Bel Air,,47.31267,5.00407,,,0,CTP2039
3041,627,"Patte d'Oie",,47.3114,5.00447,,,0,CTP0041
3066,1291,Duhamel,,47.28414,5.05689,,,0,CTP1066
3070,1042,Prevots,,47.28707,5.06384,,,0,CTP1070
3094,1099,Prison,,47.31302,5.05168,,,0,CTP0094
3110,1207,Chevre Morte,,47.33183,5.01445,,,0,CTP2110
3120,1616,Lycee Carnot,,47.32353,5.04962,,,0,CTP2120
3150,1627,Thibaut,,47.29369,5.00900,,,0,CTP1150
3164,806,Fyot,,47.30974,5.01623,,,0,CTP0164
3188,1236,Leclerc,,47.33033,5.01139,,,0,CTP2188
3194,1225,Champeaux,,47.30155,5.06376,,,0,CTP2194
3207,1066,Chateau,,47.31467,5.10593,,,0,CTP2207
3211,26,Piscine Olympique,,47.31437,5.08154,,,0,CTP1211
3230,10000,La Gentiane,,47.27893,5.11502,,,0,CTP0230
3241,1242,Gorgets,,47.3202,5.00974,,,0,CTP0241
3265,1360,Glycines,,47.33962,5.02171,,,0,CTP2265
3270,1406,Rouen,,47.33,5.03161,,,0,CTP0270
3271,1222,Dubois,,47.32489,5.03208,,,0,CTP0271
3294,238,Carraz,,47.30022,5.02179,,,0,CTP0294
3325,1300,Portefeuilles,,47.34436,5.03643,,,0,CTP2325
3351,1327,Menuisiers,,47.29082,5.14899,,,0,CTP2351
3371,1367,AgroSup,,47.31216,5.06407,,,0,CTP2371
3374,1442,Gare SNCF,,47.32248,5.03032,,,0,CTP2374
3429,1329,Kennedy,,47.29308,5.12985,,,0,CTP2429
3430,1328,J.Moulin,,47.29254,5.13397,,,0,CTP2430
3461,1631,Coteaux du Suzon,,47.35058,5.03952,,,0,CTP0461
3463,1411,Saint Exupery,,47.33712,5.05649,,,0,CTP0348
3486,1102,W.Churchill,,47.35349,5.05344,,,0,CTP2486
3ABB,1356,Abbe Chanlon,,47.30497,5.01280,,,0,CTP2ABB
3BIL,356,Billardon,,47.32964,5.06976,,,0,CTP1BIL
3CDG,1375,Lycee De Gaulle,,47.34711,5.04152,,,0,CTP1CDG
3CHM,1385,Chevigny Mairie,,47.30135,5.13480,,,0,CTP1CHM
3DAL,1342,Dallas CRI,,47.33663,5.06072,,,0,CTP0412
3EDG,1586,Marne,,47.33042,5.04835,,,0,CTP1EDG
3F,239,3 Forgerons,,47.31034,5.02570,,,0,CTP203F
3GAL,986,Allobroges,,47.3393,5.03834,,,0,CTP2GAL
3KIR,1339,Chanoine Kir,,47.31769,5.00367,,,0,CTP1KIR
3LDV,1355,Leonard De Vinci,,47.30254,5.01006,,,0,CTP2LDV
3M,131,Valentin,,47.28843,5.06050,,,0,CTP103M
3MAR,1646,Marronniers,,47.28261,5.10619,,,0,CTP1MAR
3MAT,1440,Urgences C.H.U.,,47.32264,5.06960,,,0,CTP1MAT
3OCT,1216,30-oct,,47.32083,5.05182,,,0,CTP2OCT
3POI,211,Gresilles,,47.32882,5.06404,,,0,CTP1POI
3PTH,984,Theuriet,,47.33849,5.05024,,,0,CTP2PTH
3ROO,1415,Roosevelt,,47.34773,5.05984,,,0,CTP1ROO
3SAL,770,Salengro,,47.30829,5.05645,,,0,CTP1SAL
3TOI,1317,"Toison d'Or",,47.35461,5.05181,,,0,CTP1TOI
4104,1218,Blanchisseries,,47.30711,5.03730,,,0,CTP0104
4113,1611,Parc des Sports,,47.32186,5.06519,,,0,CTP4113
CTP4113,1611,Parc des Sports,,47.32186,5.06519,,,1,
4114,1215,Doumer,,47.32276,5.06115,,,0,CTP0114
4137,1398,Poincare,,47.32948,5.05934,,,0,CTP1137
4184,1231,Perrieres,,47.32297,5.01913,,,0,CTP1184
4374,1443,SNCF Sevigne,,47.32256,5.03076,,,0,CTP4374
CTP4374,1443,SNCF Sevigne,,47.32256,5.03076,,,1,
4461,27,Coteaux du Suzon,,47.35058,5.03952,,,0,CTP0461
4463,1414,Saint Exupery,,47.33716,5.05657,,,0,CTP0348
4CHM,1333,Chevigny Mairie,,47.30217,5.13706,,,0,CTP1CHM
4CHP,1354,Druet,,47.2953,5.00460,,,0,CTP1CHP
4ECC,1400,Boutaric,,47.33518,5.06043,,,0,CTP1ECC
4FEL,1387,Felizots,,47.34257,5.02270,,,0,CTP1FEL
4GAL,1287,Fauconnet,,47.33875,5.03943,,,0,CTP0604
4KIR,1214,Chanoine Kir,,47.31718,5.00380,,,0,CTP1KIR
4POI,343,Gresilles,,47.32868,5.06555,,,0,CTP1POI
4PTH,1372,Theuriet,,47.33798,5.05095,,,0,CTP2PTH
4VAI,1445,Vaillant,,47.32999,5.04421,,,0,CTP0585
5070,1292,Prevots,,47.28721,5.06288,,,0,CTP1070
5111,1610,Montmuzard,,47.32473,5.06502,,,0,CTP0111
5113,1617,Parc des Sports,,47.32271,5.06531,,,0,CTP4113
5114,1220,Doumer,,47.32267,5.06127,,,0,CTP0114
5137,1403,Poincare,,47.32931,5.05927,,,0,CTP1137
5139,25,Auditorium,,47.32865,5.05226,,,0,CTP1604
5271,1596,Dubois,,47.32501,5.03132,,,0,CTP0271
5391,1363,Le Suzon,,47.34709,5.03468,,,0,CTP0391
5ECC,1401,Boutaric,,47.33519,5.06038,,,0,CTP1ECC
5TOI,1371,"Toison d'Or",,47.35428,5.05248,,,0,CTP1TOI
6111,1618,Montmuzard,,47.3254,5.06512,,,0,CTP0111
6139,24,Auditorium,,47.32863,5.05248,,,0,CTP1604
6AVB,1651,Grand Marche,,47.31221,5.10361,,,0,CTP6AVB
CTP6AVB,1651,Grand Marche,,47.31221,5.10361,,,1,
6BIL,10002,Billardon,,47.32895,5.07000,,,0,CTP1BIL
7AVB,1637,Grand Marche,,47.31245,5.10296,,,0,CTP6AVB
AER,1041,LONGVIC BA 102,,47.27641,5.07205,,,0,CTPAER
CTPAER,1041,LONGVIC BA 102,,47.27641,5.07205,,,1,
AGRO,371,BRETENIERE,,47.23495,5.11336,,,0,CTPAGRO
CTPAGRO,371,BRETENIERE,,47.23495,5.11336,,,1,
AHD,766,Ahuy (Arret de descente),,47.36756,5.02366,,,0,CTPAHD
CTPAHD,766,Ahuy (Arret de descente),,47.36756,5.02366,,,1,
AHU,728,AHUY,,47.36734,5.02472,,,0,CTPAHU
CTPAHU,728,AHUY,,47.36734,5.02472,,,1,
APO,477,Abbe Pierre,,47.33031,5.08892,,,0,CTP1APO
ARA,33,Arandes,,47.33506,5.01465,,,0,CTP1ARA
AUD01,1542,Auditorium,,47.32858,5.05206,,,0,CTP1604
AUD02,1562,Auditorium,,47.32863,5.05248,,,0,CTP1604
BAR,742,Barbe,,47.32896,5.03969,,,0,CTP1BAR
BEL,405,Belin,,47.32111,4.99941,,,0,CTP1247
BERT,288,Berthier,,47.35794,5.06496,,,0,CTPBERT
CTPBERT,288,Berthier,,47.35794,5.06496,,,1,
BIE,125,LONGVIC,,47.28232,5.05890,,,0,CTPBIE
CTPBIE,125,LONGVIC,,47.28232,5.05890,,,1,
BIL,539,Billardon,,47.3292,5.07011,,,0,CTP1BIL
BILL,1110,Billardon,,47.32883,5.06984,,,0,CTP1BIL
BOU01,1457,Bourroches,,47.30538,5.02351,,,0,CTP0293
BOU02,1490,Bourroches,,47.30546,5.02345,,,0,CTP0293
BOURF,1348,Bourroches Eiffel,,47.31357,5.01498,,,0,CTP0037
BOURM,1263,Bourroches,,47.30537,5.02272,,,0,CTP0293
BRE,1136,BRESSEY,,47.30914,5.18295,,,0,CTPBRE
CTPBRE,1136,BRESSEY,,47.30914,5.18295,,,1,
BRET,1046,Plaisanciers,,47.23852,5.11506,,,0,CTP1BRET
BRG01,1543,Grand Marche,,47.31238,5.10348,,,0,CTP6AVB
BRG02,1563,Grand Marche,,47.31243,5.10400,,,0,CTP6AVB
CAL,607,Calmette,,47.30963,5.00185,,,0,CTP1CAL
CAM01,1544,Universite,,47.31158,5.07310,,,0,CTPCAM01
CTPCAM01,1544,Universite,,47.31158,5.07310,,,1,
CAM02,1564,Universite,,47.3116,5.07331,,,0,CTPCAM01
CAMP,1364,Universite,,47.31132,5.07356,,,0,CTPCAM01
CANC,335,Canal,,47.31379,5.02830,,,0,CTPCANC
CTPCANC,335,Canal,,47.31379,5.02830,,,1,
CANF,333,Canal,,47.31439,5.02843,,,0,CTPCANC
CARC,55,Carraz,,47.30034,5.02104,,,0,CTP0294
CARD,54,Carraz,,47.30032,5.02167,,,0,CTP0294
CARM,1038,Longvic Carmelites,,47.2858,5.07342,,,0,CTPCARM
CTPCARM,1038,Longvic Carmelites,,47.2858,5.07342,,,1,
CAST,680,Lycee le Castel,,47.31325,5.03585,,,0,CTP1CAST
CBA,1035,Depot CBA,,47.35023,5.07995,,,0,CTPCBA
CTPCBA,1035,Depot CBA,,47.35023,5.07995,,,1,
CDG,733,Lycee De Gaulle,,47.34706,5.04178,,,0,CTP1CDG
CDP,902,College Le Parc,,47.31018,5.03307,,,0,CTP1CDP
CEL,297,Cellerier,,47.3278,5.03347,,,0,CTP1CEL
CEM,53,Les Ateliers,,47.29577,5.02492,,,0,CTPCEM
CTPCEM,53,Les Ateliers,,47.29577,5.02492,,,1,
CFA,431,CFA La Noue,,47.29175,5.03606,,,0,CTP1CFA
CFLY,1248,Cours Fleury,,47.32804,5.04181,,,0,CTP1CFLY
CGC,252,Grands Crus,,47.28455,5.00851,,,0,CTP1CGC
CHA,234,Grangier,,47.32255,5.03682,,,0,CTPCHA
CTPCHA,234,Grangier,,47.32255,5.03682,,,1,
CHA01,1545,Cap Vert,,47.31357,5.09430,,,0,CTP1LAB
CHA02,1565,Cap Vert,,47.31354,5.09541,,,0,CTP1LAB
CHD,163,College H. Dunant,,47.30299,5.01437,,,0,CTPCHD
CTPCHD,163,College H. Dunant,,47.30299,5.01437,,,1,
CHE01,1459,Chenove Centre,,47.29458,5.00650,,,0,CTP0356
CHE02,1534,Chenove Centre,,47.29459,5.00651,,,0,CTP0356
CHEV,1141,Chevigny Pont Neuf,,47.24341,5.05680,,,0,CTP1CHEV
CHF,927,Champforey,,47.2779,4.99817,,,0,CTP1CHF
CHH,254,MARSANNAY,,47.27992,5.00638,,,0,CTP1CHH
CHK,977,Chanoine Kir,,47.31748,5.00284,,,0,CTP1KIR
CHT,20,Champmaillot,,47.31868,5.05522,,,0,CTP1CHT
CHU01,1546,CHU - Hopitaux,,47.32035,5.06743,,,0,CTP0343
CHU02,1566,CHU - Hopitaux,,47.31989,5.06776,,,0,CTP0343
CIM,290,Cimetiere,,47.30349,5.06441,,,0,CTP1CIM
CLO,73,Clomiers,,47.3332,5.01688,,,0,CTP1CLO
CPL,487,Lycee Eiffel,,47.33419,5.06660,,,0,CTP1CPL
CRI,1129,CRIMOLOIS,,47.27397,5.11968,,,0,CTPCRI
CTPCRI,1129,CRIMOLOIS,,47.27397,5.11968,,,1,
DAR01,1462,Darcy,,47.32379,5.03426,,,0,CTP0539
DAR02,1494,Darcy,,47.32386,5.03441,,,0,CTP0539
DARS,1609,Darcy Sevigne,,47.32322,5.03284,,,0,CTPDARS
CTPDARS,1609,Darcy Sevigne,,47.32322,5.03284,,,1,
DEP,122,DEPOT,,47.28865,5.01007,,,0,CTPDEP
CTPDEP,122,DEPOT,,47.28865,5.01007,,,1,
DEPNAV,1193,Depot Navette Personnel,,47.29903,5.02580,,,0,CTPDEPNAV
CTPDEPNAV,1193,Depot Navette Personnel,,47.29903,5.02580,,,1,
DEPNAV#D,11193,Depot Navette Personnel,,47.31649,5.03068,,,0,CTPDEPNAV#D
CTPDEPNAV#D,11193,Depot Navette Personnel,,47.31649,5.03068,,,1,
DEPNAV#F,12193,Depot Navette Personnel,,47.31649,5.03068,,,0,CTPDEPNAV#D
DEV,1230,Darcy Devosge,,47.3241,5.03433,,,0,CTPDEV
CTPDEV,1230,Darcy Devosge,,47.3241,5.03433,,,1,
DGA01,1464,Le Mail,,47.29978,5.01049,,,0,CTPDGA01
CTPDGA01,1464,Le Mail,,47.29978,5.01049,,,1,
DGA02,1496,Le Mail,,47.29978,5.01049,,,0,CTPDGA01
DOM,1143,Domois,,47.25922,5.04823,,,0,CTP1DOM
DORG,1144,Dorgeles,,47.28799,5.06377,,,0,CTPDORG
CTPDORG,1144,Dorgeles,,47.28799,5.06377,,,1,
DPE,776,Square Darcy,,47.32371,5.03274,,,0,CTP0125
DR,81,College Dorgeles,,47.29473,5.05972,,,0,CTPDR
CTPDR,81,College Dorgeles,,47.29473,5.05972,,,1,
DRA01,1465,Drapeau,,47.3329,5.04396,,,0,CTP0159
DRA02,1497,Drapeau,,47.33301,5.04394,,,0,CTP0159
DYP,3,Darcy,,47.32316,5.03295,,,0,CTP0539
ECC,861,Boutaric,,47.33494,5.06117,,,0,CTP1ECC
ECN,484,Epirey Cap Nord,,47.33981,5.06835,,,0,CTPECN
CTPECN,484,Epirey Cap Nord,,47.33981,5.06835,,,1,
EDG,678,Marne,,47.32972,5.04875,,,0,CTP1EDG
EP017,107,CRAM,,47.34289,5.07772,,,0,CTPEP017
CTPEP017,107,CRAM,,47.34289,5.07772,,,1,
EP019,110,Cracovie,,47.34289,5.07772,,,0,CTPEP019
CTPEP019,110,Cracovie,,47.34289,5.07772,,,1,
EP117,108,CRAM,,47.34289,5.07772,,,0,CTPEP017
EP119,109,Cracovie,,47.34298,5.07788,,,0,CTPEP019
EPI,486,Dallas CRI,,47.33581,5.06258,,,0,CTP0412
EPO,79,"Domaine d'Epoisses",,47.23657,5.09813,,,0,CTPEPO
CTPEPO,79,"Domaine d'Epoisses",,47.23657,5.09813,,,1,
ERA01,1550,Erasme,,47.31532,5.06707,,,0,CTPERA01
CTPERA01,1550,Erasme,,47.31532,5.06707,,,1,
ERA02,1569,Erasme,,47.31499,5.06750,,,0,CTPERA01
EUR01,1466,Europe,,47.35309,5.04620,,,0,CTP0455
EUR02,1498,Europe,,47.35316,5.04559,,,0,CTP0455
EXC,1055,CHEVIGNY ZI,,47.28334,5.12764,,,0,CTPEXC
CTPEXC,1055,CHEVIGNY ZI,,47.28334,5.12764,,,1,
FDM,919,Marguerites,,47.33636,5.04123,,,0,CTP1FDM
FDS,880,Fac. des Sciences,,47.31579,5.06472,,,0,CTPFDS
CTPFDS,880,Fac. des Sciences,,47.31579,5.06472,,,1,
FEL,423,Felizots,,47.34332,5.02318,,,0,CTP1FEL
FEN,1139,FENAY,,47.23274,5.06378,,,0,CTPFEN
CTPFEN,1139,FENAY,,47.23274,5.06378,,,1,
FLA,128,FLAVIGNEROT,,47.2784,4.91628,,,0,CTPFLA
CTPFLA,128,FLAVIGNEROT,,47.2784,4.91628,,,1,
FLE,383,SAINT-APOLLINAIRE La Fleurie,,47.3344,5.07952,,,0,CTPFLE
CTPFLE,383,SAINT-APOLLINAIRE La Fleurie,,47.3344,5.07952,,,1,
FMG,1232,Motte Giron,,47.31561,4.98718,,,0,CTPFMG
CTPFMG,1232,Motte Giron,,47.31561,4.98718,,,1,
FO,344,"Fontaine d'Ouche",,47.32184,4.99734,,,0,CTP1FO
FOB,369,"Fontaine d'Ouche",,47.32186,4.99735,,,0,CTP1FO
FOC01,1467,Foch Gare,,47.32349,5.03029,,,0,CTPFOC01
CTPFOC01,1467,Foch Gare,,47.32349,5.03029,,,1,
FOC02,1499,Foch Gare,,47.32355,5.03046,,,0,CTPFOC01
FTN,308,FONTAINE Village,,47.34814,5.01091,,,0,CTP2FTN
GAP,229,Junot,,47.33912,5.04445,,,0,CTP0349
GAR01,1585,DIJON Gare,,47.32331,5.02827,,,0,CTPGAR01
CTPGAR01,1585,DIJON Gare,,47.32331,5.02827,,,1,
GAR02,1551,DIJON Gare,,47.32335,5.02827,,,0,CTPGAR01
GLA,418,Glaieuls,,47.33994,5.03566,,,0,CTP1GLA
GOD,273,Grangier,,47.32277,5.03822,,,0,CTPCHA
GOD01,1528,Godrans,,47.32526,5.03881,,,0,CTPGOD01
CTPGOD01,1528,Godrans,,47.32526,5.03881,,,1,
GOD02,1536,Godrans,,47.32544,5.03936,,,0,CTPGOD01
GRE,406,Parc de la Colombiere,,47.29921,5.04026,,,0,CTPGRE
CTPGRE,406,Parc de la Colombiere,,47.29921,5.04026,,,1,
GRE01,1555,Gresilles,,47.32888,5.06442,,,0,CTP1POI
GRE02,1571,Gresilles,,47.32892,5.06460,,,0,CTP1POI
GRP,16,Poste,,47.32355,5.03678,,,0,CTPGRP
CTPGRP,16,Poste,,47.32355,5.03678,,,1,
GUI,425,Monnet,,47.34692,5.02657,,,0,CTP1GUI
GUT,1640,Gutenberg,,47.30776,5.10172,,,0,CTP1GUT
HCA01,1469,Carraz,,47.30093,5.02101,,,0,CTP0294
HCA02,1502,Carraz,,47.30102,5.02095,,,0,CTP0294
HDM,823,De Coubertin,,47.30915,5.08360,,,0,CTP1HDM
HFR,599,Hopital,,47.31856,5.02954,,,0,CTP1HFR
HOP,237,Monge,,47.31668,5.03057,,,0,CTP0584
HOR,618,Hortensias,,47.30323,4.99607,,,0,CTPHOR
CTPHOR,618,Hortensias,,47.30323,4.99607,,,1,
HOU,301,Houdart,,47.3362,5.02504,,,0,CTP1HOU
Htv,1592,HAUTEVILLE,,47.36702,5.00280,,,0,CTPHtv
CTPHtv,1592,HAUTEVILLE,,47.36702,5.00280,,,1,
JAU01,1672,Jaures,,47.31047,5.02640,,,0,CTP0292
JAU02,1683,Jaures,,47.31081,5.02646,,,0,CTP0292
JMB,56,Lycee Boivin,,47.30245,5.12684,,,0,CTP2JMB
JOFF,1652,College Clos de Pouilly,,47.34113,5.05173,,,0,CTPJOFF
CTPJOFF,1652,College Clos de Pouilly,,47.34113,5.05173,,,1,
JRO,1188,Ronde,,47.31674,5.10971,,,0,CTP1JRO
JUN01,1472,Junot,,47.33896,5.04457,,,0,CTP0349
JUN02,1505,Junot,,47.33918,5.04460,,,0,CTP0349
KES,96,Kessel,,47.33442,5.07012,,,0,CTPKES
CTPKES,96,Kessel,,47.33442,5.07012,,,1,
LAB,202,Cap Vert,,47.31353,5.09432,,,0,CTP1LAB
LAC,1007,Le Lac,,47.32483,5.00845,,,0,CTP1LAC
LB,126,Bief du Moulin,,47.28417,5.06105,,,0,CTP1LB
LOTI,1234,Lycee Montchapet,,47.33684,5.01743,,,0,CTPLOTI
CTPLOTI,1234,Lycee Montchapet,,47.33684,5.01743,,,1,
LYC,1016,Lycee Kir,,47.34157,4.96662,,,0,CTP1LYC
LZI,1315,Longvic ZI,,47.27535,5.06199,,,0,CTP1LZI
MAD,947,De Maupassant,,47.34526,5.04141,,,0,CTPMAD
CTPMAD,947,De Maupassant,,47.34526,5.04141,,,1,
MAG,1132,MAGNY,,47.27683,5.17414,,,0,CTPMAG
CTPMAG,1132,MAGNY,,47.27683,5.17414,,,1,
MAI01,1474,1er Mai,,47.31463,5.02876,,,0,CTP0291
MAI02,1507,1er Mai,,47.31477,5.02874,,,0,CTP0291
MAN,556,Mansart,,47.31291,5.06100,,,0,CTP1MAN
MARI,1657,Gare SNCF,,47.32214,5.03068,,,0,CTP2374
MARM,1608,Marmuzots,,47.3281,5.01327,,,0,CTP0186
MAT,828,Urgences C.H.U.,,47.32235,5.06988,,,0,CTP1MAT
MAU,917,De Maupassant,,47.34382,5.04172,,,0,CTPMAD
MB,92,Mont Blanc,,47.2992,5.07762,,,0,CTP1MB
MCH,1246,MARSANNAY Charon,,47.26748,4.98972,,,0,CTPMCH
CTPMCH,1246,MARSANNAY Charon,,47.26748,4.98972,,,1,
MDR,152,Fassoles,,47.3348,5.00936,,,0,CTP1MDR
MEL,1322,Chevigny,,47.2975,5.12549,,,0,CTP1MEL
MES,31,St-Mesmin,,47.33244,5.01849,,,0,CTP1MES
MIR01,1556,Mazen Sully,,47.31486,5.07680,,,0,CTP0197
MIR02,1572,Mazen Sully,,47.31499,5.07686,,,0,CTP0197
ML,1135,Maladiere,,47.34455,5.00076,,,0,CTP1ML
MON,967,Loti,,47.3341,5.01834,,,0,CTP1MON
MON01,1530,Monge,,47.31731,5.03138,,,0,CTP0584
MON02,1537,Monge,,47.31777,5.03128,,,0,CTP0584
MSD,242,Morey St-Denis,,47.30408,5.02058,,,0,CTP1MSD
MTL,658,Montagne de Larrey,,47.31052,4.99414,,,0,CTPMTL
CTPMTL,658,Montagne de Larrey,,47.31052,4.99414,,,1,
NAC,1204,TALANT Citadelle,,47.34352,4.99306,,,0,CTPNAC
CTPNAC,1204,TALANT Citadelle,,47.34352,4.99306,,,1,
NAT,1343,Nation,,47.34721,5.04423,,,0,CTP0457
NAT01,1475,Nation,,47.34629,5.04532,,,0,CTP0457
NAT02,1508,Nation,,47.34641,5.04523,,,0,CTP0457
NAVCEM,124,Les Ateliers,,47.29561,5.02464,,,0,CTPCEM
NAVCEM#D,4,Les Ateliers,,47.29559,5.02515,,,0,CTPCEM
NAVCEM#F,206,Les Ateliers,,47.2956,5.02515,,,0,CTPCEM
NAVCEMD,358,Les Ateliers,,47.29559,5.02515,,,0,CTPCEM
NAVCEMF,362,Les Ateliers,,47.2956,5.02515,,,0,CTPCEM
NAVPER,115,Depot Navette Personnel,,47.29556,5.02520,,,0,CTPNAVPER
CTPNAVPER,115,Depot Navette Personnel,,47.29556,5.02520,,,1,
NAVPER#D,123,Depot Navette Personnel,,47.29549,5.02540,,,0,CTPNAVPER
NAVPER#F,116,Depot Navette Personnel,,47.29548,5.02540,,,0,CTPNAVPER
NAVPERD,364,Depot Navette Personnel,,47.29549,5.02540,,,0,CTPNAVPER
NAVPERF,368,Depot Navette Personnel,,47.29548,5.02540,,,0,CTPNAVPER
NORD1,1595,rue du Nord,,47.32596,5.04511,,,0,CTPNORD1
CTPNORD1,1595,rue du Nord,,47.32596,5.04511,,,1,
OLY01,1580,Piscine Olympique,,47.31497,5.08194,,,0,CTP1211
OLY02,1581,Piscine Olympique,,47.31498,5.08231,,,0,CTP1211
OUGES,462,Pautet,,47.2532,5.08523,,,0,CTP1OUGES
PAM,814,Pre aux Moines,,47.29033,5.10015,,,0,CTP1PAM
PARC,136,Parc,,47.30253,5.04888,,,0,CTP1PARC
PCC,1025,Bolotte,,47.27184,5.00396,,,0,CTPPCC
CTPPCC,1025,Bolotte,,47.27184,5.00396,,,1,
PCH,704,Charet,,47.30859,5.01167,,,0,CTP1PCH
PDS01,1557,Parc des Sports,,47.32263,5.06528,,,0,CTP4113
PDS02,1573,Parc des Sports,,47.3224,5.06534,,,0,CTP4113
PLO,992,PLOMBIERES,,47.34674,4.96502,,,0,CTPPLO
CTPPLO,992,PLOMBIERES,,47.34674,4.96502,,,1,
POI,491,Gresilles,,47.32923,5.06500,,,0,CTP1POI
POI01,1558,Poincare,,47.32886,5.05853,,,0,CTP1137
POI02,1574,Poincare,,47.3289,5.05942,,,0,CTP1137
POU,227,Pouilly,,47.34634,5.04516,,,0,CTP1POU
POUS,287,Chicago,,47.30317,5.05901,,,0,CTPPOUS
CTPPOUS,287,Chicago,,47.30317,5.05901,,,1,
PRV01,1668,DIJON Valmy,,47.36563,5.04667,,,0,CTPPRV01
CTPPRV01,1668,DIJON Valmy,,47.36563,5.04667,,,1,
PRV02,1509,DIJON Valmy,,47.36561,5.04703,,,0,CTPPRV01
PRVQ1,1669,DIJON Valmy,,47.36458,5.04654,,,0,CTPPRV01
PSE,1019,PERRIGNY,,47.26444,5.00734,,,0,CTPPSE
CTPPSE,1019,PERRIGNY,,47.26444,5.00734,,,1,
PTH,674,Theuriet,,47.33808,5.05148,,,0,CTP2PTH
PTHOM,1654,St-Apollinaire Pre Thomas,,47.32778,5.08536,,,0,CTPPTHOM
CTPPTHOM,1654,St-Apollinaire Pre Thomas,,47.32778,5.08536,,,1,
QUE,1192,QUETIGNY Europe,,47.31954,5.10499,,,0,CTPQUE
CTPQUE,1192,QUETIGNY Europe,,47.31954,5.10499,,,1,
QUE01,1559,QUETIGNY Centre,,47.31388,5.11010,,,0,CTPQUE01
CTPQUE01,1559,QUETIGNY Centre,,47.31388,5.11010,,,1,
QUE02,1575,QUETIGNY Centre,,47.3139,5.11018,,,0,CTPQUE01
QUEB,1059,QUETIGNY  Allees Cavalieres,,47.31705,5.11868,,,0,CTPQUEB
CTPQUEB,1059,QUETIGNY  Allees Cavalieres,,47.31705,5.11868,,,1,
QUEQ1,1684,aiguille Quetigny,,47.31401,5.11127,,,0,CTPQUEQ1
CTPQUEQ1,1684,aiguille Quetigny,,47.31401,5.11127,,,1,
REP01,1477,Republique,,47.32659,5.04411,,,0,CTPREP01
CTPREP01,1477,Republique,,47.32659,5.04411,,,1,
REP02,1510,Republique,,47.32671,5.04409,,,0,CTPREP01
REP03,1560,Republique,,47.32653,5.04582,,,0,CTPREP01
REP04,1576,Republique,,47.32661,5.04588,,,0,CTPREP01
REPC,45,Republique,,47.32627,5.04364,,,0,CTPREP01
REPN,1614,Republique,,47.32688,5.04535,,,0,CTPREP01
REPS,1615,Republique,,47.32634,5.04484,,,0,CTPREP01
RLCP,514,Rue de Longvic,,47.28969,5.00865,,,0,CTPRLCP
CTPRLCP,514,Rue de Longvic,,47.28969,5.00865,,,1,
RLCV,259,Rue de Longvic,,47.29107,5.00836,,,0,CTPRLCP
RLGC,248,Rue de Longvic,,47.2908,5.00801,,,0,CTPRLCP
RLTF,303,Rue de Longvic,,47.29003,5.00791,,,0,CTPRLCP
ROO,668,Roosevelt,,47.3473,5.05960,,,0,CTP1ROO
ROS,605,Rossignol Eiffel,,47.3128,5.01030,,,0,CTP0331
RTCV,1166,Route de Beaune,,47.28812,5.01296,,,0,CTP0287
RTMY,1165,Route de Beaune,,47.28737,5.01219,,,0,CTP0287
SAL,293,Salengro,,47.30848,5.05772,,,0,CTP1SAL
SER,890,Fonderie,,47.29288,5.15082,,,0,CTPSER
CTPSER,890,Fonderie,,47.29288,5.15082,,,1,
SMO,849,Sennecey Mairie,,47.29156,5.10204,,,0,CTP1SMO
SNCFP,1441,Square Darcy,,47.32383,5.03236,,,0,CTP0125
SOL,670,Cite du Soleil,,47.34281,5.05818,,,0,CTP1SOL
STAN,1276,Sainte-Anne,,47.30253,4.98905,,,0,CTPSTAN
CTPSTAN,1276,Sainte-Anne,,47.30253,4.98905,,,1,
STC,601,Sainte Chantal,,47.31519,5.02354,,,0,CTPSTC
CTPSTC,601,Sainte Chantal,,47.31519,5.02354,,,1,
STF,148,St-Francois,,47.32538,5.01487,,,0,CTP1STF
STL,304,St-Luc,,47.34182,5.01854,,,0,CTP1STL
STM,23,St-Michel,,47.32132,5.04539,,,0,CTPSTM
CTPSTM,23,St-Michel,,47.32132,5.04539,,,1,
TAL,44,Talant Dullin,,47.34052,4.99280,,,0,CTPTAL
CTPTAL,44,Talant Dullin,,47.34052,4.99280,,,1,
TCC,39,Jouvet,,47.33898,4.99679,,,0,CTP1TCC
TER,511,CHENOVE Centre Commercial,,47.28325,5.02034,,,0,CTP1TER
THV,82,Theatre,,47.32118,5.04410,,,0,CTP0123
TOI01,1484,"Toison d'Or",,47.35528,5.05214,,,0,CTP1TOI
TOI02,1514,"Toison d'Or",,47.35548,5.05242,,,0,CTP1TOI
TRAM,1408,Depot TRAMWAY,,47.29938,5.02558,,,0,CTPTRAM
CTPTRAM,1408,Depot TRAMWAY,,47.29938,5.02558,,,1,
UNI,340,Universite,,47.31089,5.07318,,,0,CTPCAM01
VAI,233,Vaillant,,47.33065,5.04361,,,0,CTP0585
VAL11,1531,Giroud,,47.36496,5.04939,,,0,CTP0553
VAL12,1538,Giroud,,47.3653,5.04975,,,0,CTP0553
VAL21,1532,Pole Sante,,47.36121,5.05125,,,0,CTP0551
VAL22,1539,Pole Sante,,47.36122,5.05107,,,0,CTP0551
VALE01,1533,Valendons,,47.30181,5.01520,,,0,CTP0616
VALE02,1540,Valendons,,47.30184,5.01525,,,0,CTP0616
VALM,1178,Parc Valmy,,47.36184,5.05007,,,0,CTPVALM
CTPVALM,1178,Parc Valmy,,47.36184,5.05007,,,1,
VALS,376,SAINT-APOLLINAIRE Val Sully,,47.33669,5.09162,,,0,CTPVALS
CTPVALS,376,SAINT-APOLLINAIRE Val Sully,,47.33669,5.09162,,,1,
VIG,384,Vignes aux Chiens,,47.33269,5.07667,,,0,CTP1VIG
VXB,1011,Vaux Bruns,,47.3362,4.98266,,,0,CTP1VXB
WIL,141,Wilson Carnot,,47.31647,5.04423,,,0,CTPWIL
CTPWIL,141,Wilson Carnot,,47.31647,5.04423,,,1,
WILD,746,Wilson Dumont,,47.31539,5.04204,,,0,CTPWILD
CTPWILD,746,Wilson Dumont,,47.31539,5.04204,,,1,
WILF,182,Wilson Sisley,,47.31663,5.04269,,,0,CTP1WILF
ZEN,336,Zenith,,47.354,5.05809,,,0,CTPZEN
CTPZEN,336,Zenith,,47.354,5.05809,,,1,
ZEN01,1675,Zenith,,47.35655,5.05649,,,0,CTPZEN01
CTPZEN01,1675,Zenith,,47.35655,5.05649,,,1,
ZEN02,1677,Zenith,,47.35653,5.05662,,,0,CTPZEN01
ZEN04,1678,Zenith,,47.35655,5.05706,,,0,CTPZEN01
ZEN1,1390,Zenith,,47.35401,5.05792,,,0,CTPZEN
ZSA,579,Yser,,47.34716,5.07836,,,0,CTP1ZSA
